"llid","name","legacy_name","state","max_depth_m","mean_depth_m","source","lake_waterarea_ha","lake_connectivity_permanent","effort","lat","long","source_type","buffer100m_slope_mean"
274265,"TNRL-1",NA,"AL",17.3736,4.8768,"www.lakelubbers.com",21190.5786519,"DrainageLk","manual",34.762564,-87.243619,"Misc",NA
248780,"INLB-1",NA,"AL",44.196,23.4696,"www.outdooralabama.com",562.425417787,"DrainageLk","manual",33.834688,-86.550942,"Misc",NA
251755,"BCLM-2",NA,"AL",15.24,4.572,"www.lakelubbers.com",1339.23634013,"DrainageLk","manual",30.740052,-88.335142,"Misc",NA
274535,"CEDF-2",NA,"AL",24.384,4.572,"www.lakelubbers.com",1644.27213301,"DrainageLk","manual",34.544028,-87.973694,"Misc",NA
244056,"TUST-3",NA,"AL",28.0416,6.7056,"www.lakelubbers.com",2053.97783258,"DrainageLk","manual",33.34054,-87.560421,"Misc",NA
248121,"OLIT-2",NA,"AL",39.3192,4.8768,"www.lakelubbers.com",268.274168015,"DrainageLk","manual",33.242573,-87.504276,"Misc",NA
274672,"LBRF-2",NA,"AL",25.6032,4.8768,"www.lakelubbers.com",586.076213125,"Drainage","manual",34.451933,-87.973222,"Misc",NA
273808,"TENR-350",NA,"AL",18.288,4.572,"www.encyclopediaofalabama.org",26552.3917888,"DrainageLk","manual",34.423778,-86.374472,"Misc",NA
274102,"UBAM-1",NA,"AL",21.336,4.2672,"www.lakelubbers.com",638.150197492,"Drainage","manual",34.273306,-87.692167,"Misc",NA
241074,"NEES-11",NA,"AL",18.8976,3.048,"www.lakelubbers.com",832.735125569,"DrainageLk","manual",34.1301,-85.7945,"Misc",NA
244048,"COFC-3",NA,"AL",7.62,NA,"www.lakebrowser.com",2614.09993861,"DrainageLk","manual",32.292368,-87.937967,"Misc",NA
225407,"GEOH-25",NA,"AL",30,5,"en.wikipedia.org",14131.1921477,"DrainageLk","manual",31.835931,-85.142004,"Misc",NA
274861,"TURL-1",NA,"AL",4.6,1.5,"fishing-app.gpsnauticalcharts.com",29.4578705974,"Drainage","manual",34.545538,-87.270626,"Misc",NA
246795,"CTMC-1",NA,"AL",25,0.6,"fishing-app.gpsnauticalcharts.com",213.370227058,"Drainage","manual",34.18617,-86.80415,"Misc",NA
454129,"LAKE HAVASU - MID THOMPSON BAY",NA,"AZ",27.432,10.668,"en.wikipedia.org",7473.30131295,"DrainageLk","manual",34.3007783,-114.1376314,"Misc",NA
454647,"KENNEDY LAKE - AT DAM",NA,"AZ",3.6576,2.4384,"en.wikipedia.org",3.92864815445,"Isolated","manual",32.180215,-111.0081717,"Misc",NA
454987,"LAKE PLEASANT - MID LAKE",NA,"AZ",89.3064,NA,"fishing-app.gpsnauticalcharts.com",3717.30106945,"DrainageLk","manual",33.9061111,-112.2427778,"Misc",NA
454654,"PARKER CANYON LAKE - AT DAM",NA,"AZ",18.288,12.192,"en.wikipedia.org",42.6196672692,"Isolated","manual",31.4277778,-110.4563889,"Misc",NA
454977,"LYNX LAKE - AT DAM",NA,"AZ",NA,12.192,"en.wikipedia.org",20.0934195874,"Isolated","manual",34.5216667,-112.3866667,"Misc",NA
453872,"RAINBOW LAKE - AT DAM",NA,"AZ",NA,1.8288,"en.wikipedia.org",51.7976949466,"Drainage","manual",34.1538889,-109.9838889,"Misc",NA
453711,"CATARACT LAKE - AT DAM",NA,"AZ",NA,3.6576,"en.wikipedia.org",15.1599376236,"Isolated","manual",35.2516667,-112.2155556,"Misc",NA
453861,"WOODS CANYON LAKE - AT DAM",NA,"AZ",12.192,7.62,"www.fws.gov",22.3374625561,"Isolated","manual",34.3344444,-110.9369444,"Government",NA
453970,"WILLOW SPRINGS LAKE - AT DAM",NA,"AZ",NA,18.288,"en.wikipedia.org",58.6485072265,"Isolated","manual",34.3158333,-110.8763889,"Misc",NA
453937,"MORMON LAKE - AT DAM",NA,"AZ",NA,3.048,"en.wikipedia.org",1255.18013039,"Isolated","manual",34.9455556,-111.4413889,"Misc",NA
453820,"BLACK CANYON LAKE - AT DAM",NA,"AZ",18.288,10.668,"www.fws.gov",14.6836942302,"Isolated","manual",34.3310833,-110.6984722,"Government",NA
454663,"BIG LAKE - AT BOAT DOCK",NA,"AZ",NA,4.8768,"en.wikipedia.org",223.058721857,"DrainageLk","manual",33.8752778,-109.4233333,"Misc",NA
454163,"LAKE MOHAVE - ELDORADO CANYON",NA,"AZ",44.8056,22.86,"en.wikipedia.org",11157.6684707,"Drainage","manual",35.7088889,-114.705,"Misc",NA
454779,"ROOSEVELT LAKE - AT DAM",NA,"AZ",52.4256,NA,"fishing-app.gpsnauticalcharts.com",3960.88557102,"DrainageLk","manual",33.6769444,-111.1541667,"Misc",NA
454864,"ROOSEVELT LAKE - TONTO CREEK INLET",NA,"AZ",51.816,NA,"fishing-app.gpsnauticalcharts.com",1896.90586692,"Headwater","manual",33.7191667,-111.1922222,"Misc",NA
454839,"PECK'S LAKE - MID LAKE",NA,"AZ",3.048,NA,"en.wikipedia.org",38.0975679964,"Isolated","manual",34.7825,-112.0394,"Misc",NA
454327,"ROPER LAKE - AT DAM",NA,"AZ",NA,6.096,"en.wikipedia.org",10.6361475205,"Isolated","manual",32.75674,-109.7044,"Misc",NA
454603,"RIGGS FLAT LAKE - AT DAM",NA,"AZ",NA,13.716,"en.wikipedia.org",3.76949297778,"Isolated","manual",32.7075,-109.9656,"Misc",NA
454468,"ROSE CANYON LAKE - AT DAM",NA,"AZ",NA,13.4112,"en.wikipedia.org",2.78662918444,"Isolated","manual",32.38722,-110.7111,"Misc",NA
454669,"JD DAM LAKE - AT BOAT RAMP",NA,"AZ",NA,1.8288,"en.wikipedia.org",11.4712622961,"Isolated","manual",35.06722,-112.0272,"Misc",NA
454698,"CRESCENT LAKE - MID LAKE",NA,"AZ",NA,4.572,"en.wikipedia.org",74.7931513398,"Isolated","manual",33.90972,-109.4206,"Misc",NA
453939,"KINNIKINICK LAKE - AT DAM",NA,"AZ",NA,6.7056,"en.wikipedia.org",49.1049407477,"Isolated","manual",34.89583,-111.2992,"Misc",NA
453819,"BEAR CANYON LAKE - AT DAM",NA,"AZ",15.24,NA,"www.fws.gov",21.7633906265,"Headwater","manual",34.40673,-111.0016,"Government",NA
454703,"PERKINS LAKE - AT DAM",NA,"AZ",NA,3.048,"en.wikipedia.org",1.51752192189,"Isolated","manual",35.11139,-112.0703,"Misc",NA
453838,"LEE VALLEY RESERVOIR - AT DAM",NA,"AZ",6.096,3.048,"en.wikipedia.org",17.2791199782,"Headwater","manual",33.94194,-109.4994,"Misc",NA
454758,"TEMPE TOWN LAKE - USD",NA,"AZ",5.7912,4.8768,"en.wikipedia.org",126.352292896,"DrainageLk","manual",33.43308,-111.9192,"Misc",NA
454273,"MITTRY LAKE - AT DAM",NA,"AZ",NA,2.4384,"en.wikipedia.org",136.03619874,"Drainage","manual",32.82028,-114.4606,"Misc",NA
453965,"LAKE MARY (LOWER)  - DAM SITE",NA,"AZ",8.2296,NA,"fishing-app.gpsnauticalcharts.com",60.2369913893,"Headwater","manual",35.11194,-111.5825,"Misc",NA
454019,"NELSON RESERVOIR - AT DAM",NA,"AZ",7.3152,4.572,"en.wikipedia.org",28.2541621949,"DrainageLk","manual",34.05917,-109.1939,"Misc",NA
453948,"CARNERO LAKE - AT DEEPEST PART OF LAKE",NA,"AZ",3.048,1.8288,"en.wikipedia.org",28.487648754,"Drainage","manual",34.116,-109.5272,"Misc",NA
454729,"CANYON LAKE - DAM SITE IN LITTORAL ZONE",NA,"AZ",NA,39.624,"en.wikipedia.org",183.335430177,"DrainageLk","manual",33.55278,-111.4428,"Misc",NA
453833,"WOODLAND RESERVOIR - NEAR DAM / GATE",NA,"AZ",6.096,1.2192,"en.wikipedia.org",6.88571063198,"Isolated","manual",34.12681,-109.9529,"Misc",NA
454731,"GOLDWATER LAKE (UPPER) - DAM SITE",NA,"AZ",NA,3.048,"en.wikipedia.org",8.62007793084,"Isolated","manual",34.49843,-112.4509,"Misc",NA
454597,"LAKESIDE LAKE - AT DAM",NA,"AZ",10.668,4.572,"www.fws.gov",5.6659175782,"Isolated","manual",32.1863183,-110.8173686,"Government",NA
454621,"SILVERBELL LAKE -                                 USGS",NA,"AZ",2.1336,1.524,"www.fws.gov",6.17597228936,"Isolated","manual",32.2847222,-111.0311111,"Government",NA
475869,"Lake Natomas at Nimbus Flat -Left",NA,"CA",NA,14,"en.wikipedia.org",212.180016499,"DrainageLk","manual",38.634689,-121.2172394,"Misc",NA
478722,"Hensley Lake - Andy's Cove",NA,"CA",34,NA,"fishing-app.gpsnauticalcharts.com",576.592316564,"Headwater","manual",37.10817,-119.8697586,"Misc",NA
483387,"Lake Cahuilla",NA,"CA",91,NA,"en.wikipedia.org",55.1810965178,"Drainage","manual",33.62878,-116.2734528,"Misc",NA
476148,"Clear Lake - Treated-02-CLT-02",NA,"CA",17.9832,6.4008,"www.clearlakeguideservice.com",16018.4292564,"DrainageLk","manual",38.999683,-122.6725845,"Misc",NA
480596,"Soulajule Reservoir-02-S-02",NA,"CA",24.384,NA,"marinwater.org",19.8783694079,"Drainage","manual",38.147316,-122.7748184,"Misc",NA
482504,"Castaic Lake",NA,"CA",100.584,NA,"www.lakelubbers.com",903.021378055,"DrainageLk","manual",34.524948,-118.5993805,"Misc",NA
481789,"Lopez Lake",NA,"CA",38,NA,"fishing-app.gpsnauticalcharts.com",230.11752115,"Drainage","manual",35.197319,-120.4687881,"Misc",NA
482417,"Elderberry Forebay Site 1",NA,"CA",34,NA,"fishing-app.gpsnauticalcharts.com",154.631001789,"DrainageLk","manual",34.564869,-118.6331711,"Misc",NA
482507,"Big Bear Lake - Eagle Point-02-BBE-02",NA,"CA",22,11,"en.wikipedia.org",1090.56271503,"DrainageLk","manual",34.249001,-116.9060974,"Misc",NA
476851,"Hanning Flat",NA,"CA",22,NA,"fishing-app.gpsnauticalcharts.com",1950.41577936,"DrainageLk","manual",35.666561,-118.3957138,"Misc",NA
454274,"Ferguson Lake",NA,"CA",5.7,1.8,"www.env.gov.bc.ca",159.792557287,"DrainageLk","manual",32.972038,-114.4999924,"Government",NA
454136,"Taylor Lake",NA,"CA",5,NA,"nrm.dfg.ca.gov",73.4584164556,"Drainage","manual",33.030102,-114.6304016,"Government",NA
483164,"Lake Gregory",NA,"CA",13.716,NA,"www.mountain-news.com",32.9380395319,"Isolated","manual",34.242081,-117.2705612,"Misc",NA
482152,"Legg Lake",NA,"CA",3.048,0.9144,"www.waterboards.ca.gov",11.2597060492,"Headwater","manual",34.033298,-118.0594177,"Government",NA
473866,"Lake Pillsbury - Station 1",NA,"CA",30.48,11.5824,"pubs.usgs.gov",788.122268982,"Drainage","manual",39.41637,-122.9404831,"Government",NA
482136,"Pyramid Lake 01",NA,"CA",108.204,NA,"water.ca.gov",476.510536031,"DrainageLk","manual",34.666069,-118.7810593,"Government",NA
475063,"Folsom Lake at Browns Ravine",NA,"CA",76.2,NA,"www.californiasgreatestlakes.com",1716.34409733,"DrainageLk","manual",38.717361,-121.1031189,"Misc",NA
476689,"Camp 9",NA,"CA",16,NA,"fishing-app.gpsnauticalcharts.com",1161.72603191,"DrainageLk","manual",35.693001,-118.4434967,"Misc",NA
475520,"Lake of the Pines",NA,"CA",18.288,NA,"www.lakelubbers.com",88.8449149029,"Isolated","manual",39.035561,-121.0627975,"Misc",NA
481494,"Soulajule Reservoir-SM02-SM-02",NA,"CA",24.384,NA,"marinwater.org",2.91591648925,"Drainage","manual",38.041801,-122.0513153,"Misc",NA
480735,"Rodeo Lagoon Car Bridge",NA,"CA",2,NA,"en.wikipedia.org",15.3292243241,"Isolated","manual",37.83202,-122.526062,"Misc",NA
483334,"Salton Sea Drain SW2 (Salt Creek, Mouth)",NA,"CA",15.5448,9.144,"www.desertusa.com",94309.8914827,"DrainageLk","manual",33.446671,-115.8433304,"Misc",NA
473431,"Lewiston Lake",NA,"CA",19.812,2.1336,"www.lakelubbers.com",272.752348041,"DrainageLk","manual",40.746811,-122.7867203,"Misc",NA
450447,"GROUNDHOG",NA,"CO",27.432,NA,"pubs.usgs.gov",220.310160286,"Drainage","manual",37.7916,-108.293,"Government",NA
376378,"PUEBLO",NA,"CO",41.148,NA,"users.frii.com",941.147197155,"DrainageLk","manual",38.2669,-104.738,"Misc",NA
452123,"AVERY",NA,"CO",23.1648,NA,"www.fishidy.com",82.8182322255,"Drainage","manual",39.971127,-107.648,"Misc",NA
449999,"ISLAND",NA,"CO",23.4696,NA,"cpw.state.co.us",58.2892899217,"Headwater","manual",39.0383,-107.999,"Government",NA
450109,"EGGLESTON",NA,"CO",15.8496,NA,"cpw.state.co.us",52.5150592577,"DrainageLk","manual",39.0422,-107.946,"Government",NA
452001,"STEAMBOAT",NA,"CO",21.336,7.62,"www.lakelubbers.com",391.679379524,"DrainageLk","manual",40.79327,-106.9485,"Misc",NA
449847,"HIGHLINE",NA,"CO",15.24,NA,"www.outtherecolorado.com",61.0090609476,"DrainageLk","manual",39.27056,-108.84199,"Misc",NA
449121,"RUEDI",NA,"CO",74.9808,NA,"navionics",417.182033499,"DrainageLk","manual",39.36512,-106.81537,"Misc",NA
376470,"JOHN MARTIN",NA,"CO",18.288,3.048,"en.wikipedia.org",4729.13045705,"DrainageLk","manual",38.0674,-102.94363,"Misc",NA
376564,"HENRY",NA,"CO",3.048,NA,"cpw.state.co.us",483.918797504,"DrainageLk","manual",38.25955,-103.70437,"Government",NA
376210,"MEREDITH",NA,"CO",1.8288,NA,"en.wikipedia.org",2241.42833835,"DrainageLk","manual",38.21206,-103.67446,"Misc",NA
376136,"TRINIDAD",NA,"CO",21.336,NA,"navionics",318.137551825,"DrainageLk","manual",37.14162,-104.55412,"Misc",NA
361055,"ELEVENMILE",NA,"CO",41.148,NA,"cpw.state.co.us",1259.45341585,"DrainageLk","manual",38.9282,-105.512,"Government",NA
361290,"SPINNEY MOUNTAIN",NA,"CO",14.0208,NA,"cpw.state.co.us",972.347522029,"DrainageLk","manual",38.9831,-105.641,"Government",NA
360006,"ANTERO",NA,"CO",NA,5.4864,"coloradofishing.net",900.491822875,"Drainage","manual",38.9895,-105.906,"Misc",NA
359517,"CARTER",NA,"CO",54.864,NA,"www.northernwater.org",453.329719369,"Headwater","manual",40.32512,-105.21458,"Misc",NA
361058,"CHATFIELD",NA,"CO",47,NA,"en.wikipedia.org",562.239083047,"DrainageLk","manual",39.55602,-105.06285,"Misc",NA
450081,"SAN CRISTOBAL",NA,"CO",27,NA,"en.wikipedia.org",124.533804226,"Headwater","manual",37.97537,-107.289,"Misc",NA
453321,"LEMON",NA,"CO",57.3024,NA,"navionics",204.182171962,"DrainageLk","manual",37.39903,-107.66197,"Misc",NA
450419,"MCPHEE",NA,"CO",74.3712,NA,"navionics",1754.46226924,"DrainageLk","manual",37.47396,-108.53091,"Misc",NA
447213,"ALBERTA PARK",NA,"CO",NA,3.9624,"www.thesportsglobe.com",14.6574189572,"Drainage","manual",37.469201,-106.765821,"Misc",NA
359295,"SOUTH DELANEY",NA,"CO",7.0104,NA,"cpw.state.co.us",61.2789098973,"Drainage","manual",40.6995,-106.461,"Government",NA
359516,"BARR",NA,"CO",NA,10.3632,"www.denverpost.com",697.522232832,"DrainageLk","manual",39.95548,-104.75603,"Misc",NA
360338,"BEAR CREEK",NA,"CO",NA,14.6304,"www.ohranger.com",41.6518755777,"DrainageLk","manual",39.65133,-105.14001,"Misc",NA
450098,"BLUE MESA",NA,"CO",97.2312,NA,"navionics",3619.34418228,"DrainageLk","manual",38.46969,-107.30538,"Misc",NA
361059,"CHERRY CREEK",NA,"CO",NA,14.0208,"www.nwo.usace.army.mil",358.575571563,"DrainageLk","manual",39.6408333,-104.8577778,"Misc",NA
449642,"GRANBY",NA,"CO",67.3608,NA,"www.northernwater.org",2863.14757099,"DrainageLk","manual",40.1597222,-105.8652778,"Misc",NA
449545,"GRAND",NA,"CO",118.5672,NA,"en.wikipedia.org",195.295751541,"DrainageLk","manual",40.2486111,-105.8166667,"Misc",NA
360517,"PREWITT",NA,"CO",7.62,3.3528,"cpw.state.co.us",764.024395183,"DrainageLk","manual",40.42386,-103.357296,"Government",NA
449543,"DILLON",NA,"CO",NA,24.0792,"www.co.summit.co.us",1302.56964781,"DrainageLk","manual",39.621167,-106.057278,"Government",NA
446970,"RIO GRANDE",NA,"CO",14.9352,NA,"navionics",327.185272271,"DrainageLk","manual",37.71963,-107.276432,"Misc",NA
376140,"TWO BUTTES",NA,"CO",NA,6.096,"cpw.state.co.us",306.532496701,"Headwater","manual",37.637835,-102.5420617,"Government",NA
361291,"CHEESMAN RES",NA,"CO",57.912,NA,"books.google.com",358.143489173,"DrainageLk","manual",39.20905,-105.2739,"Misc",NA
450057,"Reed",NA,"CO",4.2672,NA,"books.google.com",7.41825451679,"DrainageLk","manual",39.03242833,-107.9490633,"Misc",NA
361116,"STRONTIA SPRINGS",NA,"CO",64.6176,NA,"books.google.com",32.7839769642,"DrainageLk","manual",39.43223,-105.1272,"Misc",NA
449962,"Vela",NA,"CO",7.0104,NA,"books.google.com",7.82084125617,"Drainage","manual",39.06296667,-107.871015,"Misc",NA
449751,"Waterdog",NA,"CO",6.096,NA,"www.fishexplorer.com",9.58743557013,"Headwater","manual",39.05707333,-108.0848683,"Misc",NA
449544,"SHADOW MOUNTAIN LAKE NEAR GRAND LAKE, CO.",NA,"CO",7.3152,NA,"www.lakelubbers.com",532.105343541,"DrainageLk","manual",40.2100833,-105.8420833,"Misc",NA
447083,"TERRACE RESERVOIR SITE T1B",NA,"CO",41.148,NA,"pubs.usgs.gov",56.5978365928,"DrainageLk","manual",37.3605611,-106.2878104,"Government",NA
376471,"NEENOSHE RESERVOIR DUP2",NA,"CO",21.336,7.62,"cpw.state.co.us",1281.72852631,"DrainageLk","manual",38.333341,-102.7004725,"Government",NA
450040,"CRYSTAL RES BLW MORROW POINT DAM NEAR CIMARRON, CO",NA,"CO",85.344,NA,"navionics",99.1264112733,"DrainageLk","manual",38.4527659,-107.5422807,"Misc",NA
359576,"ARVADA-RESERVOIR NEAR TOWER",NA,"CO",18.288,NA,"navionics",65.8143322388,"DrainageLk","manual",39.8219312,-105.2063769,"Misc",NA
359515,"STANDLEY LAKE -- NEAR CENTER",NA,"CO",29.2608,NA,"en.wikipedia.org",494.138296921,"DrainageLk","manual",39.863875,-105.1235963,"Misc",NA
452210,"SOUTH TWIN LAKE",NA,"CO",27,NA,"www.nativefishlab.net",20.2154750489,"Isolated","manual",39.9466486,-107.2922777,"Misc",NA
449845,"WILLOW CREEK RESERVOIR NEAR DAM NEAR GRANBY, CO",NA,"CO",37.7952,NA,"www.northernwater.org",118.223000234,"DrainageLk","manual",40.1480556,-105.9436111,"Misc",NA
360835,"SANDBEACH LAKE",NA,"CO",15.24,NA,"www.rockymountainhikingtrails.com",4.85614284458,"Headwater","manual",40.2172072,-105.6016691,"Misc",NA
449631,"COLUMBINE LAKE",NA,"CO",2.4384,NA,"www.fs.usda.gov",12.3258222266,"Drainage","manual",40.2594295,-105.8475125,"Government",NA
359781,"SKY POND SURFACE - LOCH VALE",NA,"CO",7.4,4.5,"culter.colorado.edu",4.11260456889,"Drainage","manual",40.278318,-105.668894,"University",NA
360300,"GLASS LAKE SURFACE - LOCH VALE",NA,"CO",4.7,2.8,"culter.colorado.edu",1.272371391,"Drainage","manual",40.2819291,-105.6655605,"University",NA
359787,"THE LOCH SURFACE - LOCH VALE",NA,"CO",4.7,1.5,"culter.colorado.edu",5.27314203579,"Drainage","manual",40.2924846,-105.6572268,"University",NA
359564,"LAKE ESTES NEAR DAM NEAR ESTES PARK, CO",NA,"CO",13.716,NA,"www.northernwater.org",56.0693450078,"DrainageLk","manual",40.3752615,-105.4891638,"Misc",NA
360045,"LOUISE S",NA,"CO",7.62,NA,"www.tidalfish.com",2.43622928889,"Headwater","manual",40.5077609,-105.620835,"Misc",NA
360793,"HORSETOOTH RESERVOIR NR SPRING CANYON DAM SITE C",NA,"CO",60.96,NA,"en.wikipedia.org",735.54585974,"DrainageLk","manual",40.5297049,-105.1444258,"Misc",NA
358001,"JONAH LAKE",NA,"CO",3.6576,NA,"mountainjaymedia.com",2.84034305823,"Headwater","manual",40.5516441,-106.677821,"Misc",NA
358002,"WHALE LAKE",NA,"CO",11.2776,NA,"mountainjaymedia.com",3.61616594996,"Drainage","manual",40.5569219,-106.6744875,"Misc",NA
452237,"FISH HAWK LAKE, CO",NA,"CO",7.3152,NA,"mountainjaymedia.com",3.15189786551,"DrainageLk","manual",40.6288889,-106.7694444,"Misc",NA
452173,"LAKE MARGARET",NA,"CO",15.24,NA,"mountainjaymedia.com",11.6468742675,"Headwater","manual",40.6330307,-106.7569903,"Misc",NA
452284,"LAKE ELBERT",NA,"CO",10.668,NA,"mountainjaymedia.com",4.64453819676,"Headwater","manual",40.6341423,-106.7075437,"Misc",NA
359272,"LOWER RAINBOW LAKE",NA,"CO",8.8392,NA,"mountainjaymedia.com",2.95171993615,"DrainageLk","manual",40.6485874,-106.6180949,"Misc",NA
358511,"MIDDLE RAINBOW LAKE",NA,"CO",10.0584,NA,"mountainjaymedia.com",2.46633761059,"DrainageLk","manual",40.6488652,-106.6230951,"Misc",NA
451886,"LAKE OF THE CRAGS IN MOUNT ZIRKEL WILDERENSS, CO",NA,"CO",3.3528,NA,"mountainjaymedia.com",2.15997507185,"Headwater","manual",40.649142,-106.7139327,"Misc",NA
450153,"UPPER EGGLESTON LAKE NEAR GRAND MESA, CO.",NA,"CO",15.8496,NA,"cpw.state.co.us",11.825330359,"Drainage","manual",39.0519247,-107.9325665,"Government",NA
449341,"KITSON RESERVOIR NEAR GRAND MESA, CO.",NA,"CO",3.9624,NA,"books.google.com",5.75118204398,"Drainage","manual",39.0808133,-107.9525675,"Misc",NA
449455,"NEVERSWEAT RESERVOIR NEAR GRAND MESA, CO.",NA,"CO",4.572,NA,"books.google.com",9.37574204992,"Drainage","manual",39.0927577,-107.9392338,"Misc",NA
449753,"BONHAM RESERVOIR NEAR GRAND MESA, CO.",NA,"CO",14.6304,NA,"books.google.com",30.7776286665,"DrainageLk","manual",39.103869,-107.8928433,"Misc",NA
360883,"TERRY LAKE",NA,"CO",10.668,NA,"www.tlra.co",129.669234072,"DrainageLk","manual",40.2233181,-105.123039,"Misc",NA
359562,"MARYS LAKE",NA,"CO",10.0584,NA,"www.northernwater.org",15.1253699335,"Drainage","manual",40.3422062,-105.5302769,"Misc",NA
358003,"SHOESTRING LAKE",NA,"CO",2.1336,NA,"mountainjaymedia.com",1.68580954273,"Drainage","manual",40.5574775,-106.6689316,"Misc",NA
357491,"MARTHA LAKE IN MOUNT ZIRKEL WILDERNESS, CO",NA,"CO",9.7536,NA,"mountainjaymedia.com",3.45602417961,"Headwater","manual",40.5583106,-106.6814322,"Misc",NA
452114,"PORCUPINE LAKE",NA,"CO",5.1816,NA,"mountainjaymedia.com",1.80134035409,"Drainage","manual",40.6191424,-106.7206,"Misc",NA
452113,"SNOWSTORM LAKE",NA,"CO",13.716,NA,"mountainjaymedia.com",5.52658431097,"DrainageLk","manual",40.6285863,-106.765324,"Misc",NA
452283,"LUNA LAKE IN MOUNT ZIRKEL WILDERENSS, CO",NA,"CO",16.764,NA,"mountainjaymedia.com",15.5241751432,"Drainage","manual",40.6413643,-106.7214331,"Misc",NA
358012,"SLIDE LAKE",NA,"CO",19.812,NA,"mountainjaymedia.com",9.35977230574,"Isolated","manual",40.6502536,-106.6592079,"Misc",NA
357493,"UPPER SLIDE LAKE IN MOUNT ZIRKEL WILDERNESS, CO",NA,"CO",10.668,NA,"mountainjaymedia.com",2.58864066155,"Isolated","manual",40.655809,-106.6658748,"Misc",NA
451945,"NORTH LAKE",NA,"CO",2.7432,NA,"mountainjaymedia.com",1.62726859427,"Drainage","manual",40.7230298,-106.6919863,"Misc",NA
359008,"TWIN LAKE (LOWER)",NA,"CO",6.7056,NA,"mountainjaymedia.com",8.87852653865,"Isolated","manual",40.8160842,-106.6136489,"Misc",NA
359009,"BLUE LAKE DUP2",NA,"CO",40.2336,NA,"mountainjaymedia.com",8.86862131211,"Drainage","manual",40.8246952,-106.6155934,"Misc",NA
359263,"SEVEN LAKES",NA,"CO",7.62,NA,"mountainjaymedia.com",3.88448093234,"Headwater","manual",40.8955269,-106.6814287,"Misc",NA
7096,"Pickerel Lake",NA,"CT",3.048,1.8288,"healy. water-quality characteristics of selected public recreational lakes and ponds in connecticut",32.2771098507,"Drainage","manual",41.52566667,-72.42033333,"Misc",NA
6817,"Silver Lake",NA,"CT",4.8768,1.524,"portal.ct.gov",56.8912838864,"DrainageLk","manual",41.58566667,-72.76933333,"Government",NA
6800,"Pocotopaug Lake",NA,"CT",11.5824,3.68808,"www.easthamptonct.gov",206.907296977,"Drainage","manual",41.596075,-72.50807778,"Government",NA
6684,"West Thompson Reservoir",NA,"CT",15.3924,6.52272,"healy. water-quality characteristics of selected public recreational lakes and ponds in connecticut",81.0853819284,"DrainageLk","manual",41.95199167,-71.90238333,"Misc",NA
7195,"Aspinook Pond",NA,"CT",8.2296,2.65176,"healy. water-quality characteristics of selected public recreational lakes and ponds in connecticut",124.982180947,"DrainageLk","manual",41.63902778,-71.97558611,"Misc",NA
6902,"Lake Lillinonah",NA,"CT",30.48,7.62,NA,619.580593191,"DrainageLk","manual",41.53479722,-73.40539722,"Misc",NA
7132,"Heminway Pond",NA,"CT",1.2192,NA,"www.ct.gov",2.94757674266,"DrainageLk","manual",41.60495563,-73.112807,"Government",NA
18395,"Pattaconk Reservoir",NA,"CT",4.572,2.62128,"healy. water-quality characteristics of selected public recreational lakes and ponds in connecticut",20.5584094893,"Drainage","manual",41.40889167,-72.52602222,"Misc",NA
7435,"Millers Pond",NA,"CT",5.4864,NA,"cteco.uconn.edu",12.6917029722,"Drainage","manual",41.47590278,-72.63436111,"University",NA
7412,"Mashapaug Lake",NA,"CT",13.1064,2.80416,"healy. water-quality characteristics of selected public recreational lakes and ponds in connecticut",120.562767398,"DrainageLk","manual",42.01425278,-72.13197778,"Misc",NA
6616,"Lake Chaffee",NA,"CT",3.3528,1.8288,"www.lakechaffee.net",21.1068413304,"Headwater","manual",41.93935556,-72.19531667,"Misc",NA
6849,"Lake Hayward",NA,"CT",11.2776,3.048,"healy. water-quality characteristics of selected public recreational lakes and ponds in connecticut",72.2133118861,"DrainageLk","manual",41.52098333,-72.32968333,"Misc",NA
7138,"Quaddick Reservoir",NA,"CT",5.4864,NA,"en.wikipedia.org",84.1174739414,"DrainageLk","manual",41.95653333,-71.81753611,"Misc",NA
7179,"Saugatuck Reservoir",NA,"CT",33.528,13.716,"en.wikipedia.org",333.050264161,"DrainageLk","manual",41.25099444,-73.35025,"Misc",NA
6795,"Williams Pond",NA,"CT",2.5,NA,"portal.ct.gov",109.301134312,"Drainage","manual",41.63042778,-72.30146389,"Government",NA
6599,"Lake Beseck",NA,"CT",7.3152,3.41376,"healy. water-quality characteristics of selected public recreational lakes and ponds in connecticut",45.1625266874,"Headwater","manual",41.519,-72.73,"Misc",NA
6975,"Cedar Pond",NA,"CT",5.3,NA,"portal.ct.gov",8.73870407207,"Drainage","manual",41.32105556,-72.7795,"Government",NA
6625,"Linsley Pond",NA,"CT",13.4112,6.2484,"portal.ct.gov",9.275223028,"Drainage","manual",41.31808333,-72.78444444,"Government",NA
6906,"Hanover Reservoir",NA,"CT",2.1336,0.762,"healy. water-quality characteristics of selected public recreational lakes and ponds in connecticut",8.28914426894,"DrainageLk","manual",41.64856944,-72.06162222,"Misc",NA
6781,"Holbrook Pond",NA,"CT",1.8288,0.70104,"healy. water-quality characteristics of selected public recreational lakes and ponds in connecticut",30.3978417519,"Drainage","manual",41.67605,-72.37505556,"Misc",NA
6825,"Eagleville Pond",NA,"CT",3.048,0.9144,"healy. water-quality characteristics of selected public recreational lakes and ponds in connecticut",32.1693076497,"DrainageLk","manual",41.78508056,-72.28155556,"Misc",NA
7180,"Squantz Pond",NA,"CT",14.3256,6.97992,"www.ctfishfinder.com",109.728862447,"DrainageLk","manual",41.51151944,-73.47283056,"Misc",NA
7114,"Moodus Reservoir",NA,"CT",2.7432,NA,"cteco.uconn.edu",186.339936937,"DrainageLk","manual",41.50359722,-72.40714167,"University",NA
6551,"Batterson Park Pond",NA,"CT",6.096,4.2672,"portal.ct.gov",60.5973100464,"DrainageLk","manual",41.711875,-72.7858,"Government",NA
6614,"East Twin Lake (Washinee Lake)",NA,"CT",24.384,9.87552,"healy. water-quality characteristics of selected public recreational lakes and ponds in connecticut",228.789042449,"Drainage","manual",42.02533056,-73.38288889,"Misc",NA
6809,"Gardner Lake",NA,"CT",13.1064,4.17576,"healy. water-quality characteristics of selected public recreational lakes and ponds in connecticut",213.179579503,"Drainage","manual",41.5075,-72.222,"Misc",NA
7221,"Middle Bolton Lake",NA,"CT",6.096,3.6576,"portal.ct.gov",47.4291223506,"Drainage","manual",41.80966667,-72.42616667,"Government",NA
50918,"Uncas Lake",NA,"CT",11.8872,7.3152,"portal.ct.gov",29.79689962,"DrainageLk","manual",41.37283333,-72.31883333,"Government",NA
7102,"Middle Bolton Lake",NA,"CT",6.096,3.6576,"portal.ct.gov",72.0638850376,"DrainageLk","manual",41.80021878,-72.42719614,"Government",NA
7122,"Amos Lake",NA,"CT",13.716,6.096,"www.fishingnortheast.net",44.0152650026,"Isolated","manual",41.51623056,-71.97468056,"Misc",NA
6628,"Wononscopomuc Lake",NA,"CT",32.9184,11.06424,"healy. water-quality characteristics of selected public recreational lakes and ponds in connecticut",140.878515186,"Drainage","manual",41.95531944,-73.44481389,"Misc",NA
6767,"Mudge Pond",NA,"CT",9.7536,NA,"cteco.uconn.edu",86.4467589416,"DrainageLk","manual",41.90109167,-73.471025,"University",NA
110941,"Allen Brook Pond",NA,"CT",2.4384,NA,"cteco.uconn.edu",1.93800161315,"Drainage","manual",41.4260905,-72.83665636,"University",NA
7284,"Lake McDonough (Compensating Reservoir)",NA,"CT",12.192,NA,"cteco.uconn.edu",156.092650183,"DrainageLk","manual",41.88494167,-72.96079167,"University",NA
67509,"Day Pond",NA,"CT",3.048,NA,"cteco.uconn.edu",2.88242735252,"Drainage","manual",41.5581,-72.42,"University",NA
60226,"Coventry Lake",NA,"CT",10.9728,NA,"cteco.uconn.edu",151.527541251,"Headwater","manual",41.770584,-72.321969,"University",NA
34165,"Stillwater Pond",NA,"CT",7.3152,NA,"cteco.uconn.edu",37.6410621604,"DrainageLk","manual",41.83487,-73.14888,"University",NA
62380,"The middle of Foot Bridge on the Sunset Pond",NA,"DE",3.048,1.43256,"www.njfishandwildlife.com",18.4209808086,"Drainage","manual",39.616836,-75.738129,"Misc",NA
142325,"Lake Como boat ramp",NA,"DE",2.4384,1.2192,"www.landbigfish.com",21.3436575445,"Drainage","manual",39.295659,-75.600047,"Misc",NA
142108,"Garrisons Lake,100 Yds Abv Spillway, 50% RB",NA,"DE",1.2192,NA,"www.arcgis.com",33.8975735843,"DrainageLk","manual",39.245008,-75.591841,"Misc",NA
141951,"Middle of Masseys Millpond",NA,"DE",1.8288,NA,"www.arcgis.com",15.6375850287,"Drainage","manual",39.239378,-75.623143,"Misc",NA
141953,"Killens Pond at Road 384",NA,"DE",2.1336,NA,"www.arcgis.com",31.9328038546,"Drainage","manual",38.981221,-75.529667,"Misc",NA
142246,"McGinnis Pond @ McGinnis Pond Rd. (Rd. 378)",NA,"DE",2.7432,NA,"www.arcgis.com",15.518709385,"Drainage","manual",39.036355,-75.510691,"Misc",NA
142349,"Silver Lake @ Maple Ave.",NA,"DE",2.7432,1.2192,"www.lakelubbers.com",11.71939537,"DrainageLk","manual",38.91126,-75.432996,"Misc",NA
142344,"Middle of Haven lake",NA,"DE",2.1336,NA,"kayakdelmarva.blogspot.com",34.5767952871,"DrainageLk","manual",38.911544,-75.451795,"Misc",NA
141807,"Middle of Griffith Lake",NA,"DE",0.94488,NA,"www.dnrec.delaware.gov",15.8580358274,"DrainageLk","manual",38.908998,-75.47081,"Government",NA
142031,"Middle of Blairs Pond at Rd. 443",NA,"DE",0.9144,NA,"www.dnrec.delaware.gov",2.15326661569,"Drainage","manual",38.905337,-75.490327,"Government",NA
142339,"Middle of Abbotts Pond",NA,"DE",1.524,NA,"www.arcgis.com",6.44475777019,"Drainage","manual",38.883635,-75.477202,"Misc",NA
142121,"Cubbage Pond Outlet at Road 214",NA,"DE",1.8288,NA,"www.dnrec.delaware.gov",15.1457538415,"Drainage","manual",38.866203,-75.390699,"Government",NA
141967,"Cedar Creek Mill Pond, middle at Rd. 224",NA,"DE",1.8288,NA,"www.dnrec.delaware.gov",7.64962807811,"Drainage","manual",38.867511,-75.376885,"Government",NA
142353,"Middle of Hudson Pond",NA,"DE",1.3716,NA,"www.dnrec.delaware.gov",7.78703941014,"Drainage","manual",38.838266,-75.435424,"Government",NA
142372,"Wagamons Pond Outlet at County Rd. 250",NA,"DE",2.1336,NA,"www.arcgis.com",16.8210711012,"DrainageLk","manual",38.777313,-75.313068,"Misc",NA
147892,"Williams Pond @ East Poplar St.",NA,"DE",2.4384,1.524,"www.landbigfish.com",34.8780836294,"DrainageLk","manual",38.64302,-75.60543,"Misc",NA
145435,"Hearns Pond, 100 yrd above spillway",NA,"DE",2.7432,NA,"dnrec.maps.arcgis.com",24.6866981134,"Drainage","manual",38.679316,-75.595566,"Government",NA
149098,"Chipman Pd 2/3 dist from splwy to inflo 50% RB",NA,"DE",2.4384,NA,"www.arcgis.com",22.1856040188,"DrainageLk","manual",38.567339,-75.536125,"Misc",NA
142057,"Ingrams Pond Near Tree Stumps Abv Surface 50% Rb",NA,"DE",2.1336,NA,"dnrec.maps.arcgis.com",23.1781883727,"DrainageLk","manual",38.587586,-75.327947,"Government",NA
142280,"Betts Pond Outflow at Rt 20",NA,"DE",2.4384,NA,"www.nativefishlab.net",13.2985529976,"DrainageLk","manual",38.595842,-75.304214,"Misc",NA
142203,"Waples Pond @ Rt. 1",NA,"DE",1.2192,NA,"www.arcgis.com",3.53342630705,"DrainageLk","manual",38.824218,-75.308614,"Misc",NA
148474,"Broad Creek, Tussock Pond at Road 494",NA,"DE",1.8288,NA,"www.arcgis.com",2.55174275494,"Drainage","manual",38.541464,-75.637724,"Misc",NA
149103,"Trap Pond, Racoon Pond Spillway Rd72",NA,"DE",1.8288,NA,"www.arcgis.com",7.07124105653,"Drainage","manual",38.515593,-75.460547,"Misc",NA
141830,"Middle of Betts Pond at Rt. 113 Bridge",NA,"DE",2.4384,NA,"www.nativefishlab.net",9.90733477449,"DrainageLk","manual",38.595057,-75.312427,"Misc",NA
114050,"Silver Lake @ Silver Lake Rd. (Rd.442)",NA,"DE",2.7432,1.2192,"www.lakelubbers.com",16.7043634816,"Drainage","manual",39.438725,-75.693194,"Misc",NA
141883,"Derby Pond @ Boat Ramp (Rt. 13A)",NA,"DE",1.8288,NA,"www.arcgis.com",9.29662216818,"Drainage","manual",39.085345,-75.559194,"Misc",NA
142025,"Wyoming Pond outfall at Rt. 15",NA,"DE",2.4384,NA,"www.nativefishlab.net",19.0220047684,"Drainage","manual",39.123146,-75.555602,"Misc",NA
142248,"Andrews Lake @ Andrews Lake Rd. (Rd. 380)",NA,"DE",2.7432,1.6764,"www.arcgis.com",8.39227292537,"Isolated","manual",39.024793,-75.508225,"Misc",NA
141805,"Blairs Pond @ boat ramp off Williamsville Rd. (Rd. 443)",NA,"DE",0.9144,NA,"www.dnrec.delaware.gov",12.6392748408,"Drainage","manual",38.904363,-75.486214,"Government",NA
144820,"Butler Mill Branch @ Craigs Mill Rd. (Rd. 542A)",NA,"DE",2.1336,NA,"www.arcgis.com",6.6633493486,"Drainage","manual",38.627401,-75.646083,"Misc",NA
146676,"Horsey Pond @ Sharptown Rd. (Rt. 24)",NA,"DE",2.7432,NA,"www.arcgis.com",23.6113285981,"Drainage","manual",38.546463,-75.580664,"Misc",NA
144835,"Trap Pond 200 Yards Above Spillway 50% RB",NA,"DE",1.8288,1.524,"www.arcgis.com",38.290816349,"Drainage","manual",38.529566,-75.470411,"Misc",NA
142130,"Millsboro Pond @ John Williams Hwy. (Rt. 24)",NA,"DE",3.6576,NA,"www.lakelubbers.com",54.2132961018,"DrainageLk","manual",38.594322,-75.290992,"Misc",NA
220809,"ALBERTO LAKE?",NA,"FL",NA,14.4,"aslopubs.onlinelibrary.wiley.com",13.7562765779,"Drainage","manual",30.61018472,-84.06382,"Misc",NA
218424,"ALLIGATOR LAKE",NA,"FL",6.4008,NA,"navionics",128.325772811,"Isolated","manual",30.17445361,-82.62742861,"Misc",NA
214355,"ALLIGATOR LAKE",NA,"FL",6.4008,NA,"navionics",69.3075979406,"Headwater","manual",30.17473667,-82.63047861,"Misc",NA
199678,"AMORET, LAKE",NA,"FL",3.6576,NA,"florida.hometownlocator.com",5.26860567964,"Drainage","manual",27.86340028,-81.56934944,"Misc",NA
193544,"BEAR HEAD LAKE",NA,"FL",NA,3.048,"yourorlando.com",6.29443578534,"Isolated","manual",28.4524625,-81.36164139,"Misc",NA
234392,"BIG BLUE LAKE",NA,"FL",22.9,NA,"www.researchgate.net",255.646749537,"Drainage","manual",30.46118278,-85.74601028,"Misc",NA
191167,"BONNET LAKE",NA,"FL",1.2192,NA,"navionics",92.9337112528,"DrainageLk","manual",28.14108972,-81.65591028,"Misc",NA
204033,"BONNET, LAKE",NA,"FL",3.9624,1.2192,"www.polk.wateratlas.usf.edu",31.9649047942,"Headwater","manual",28.04682194,-81.974995,"University",NA
208979,"BRADLEY LAKE",NA,"FL",3.048,NA,"navionics",215.545839374,"DrainageLk","manual",28.73225278,-82.29040639,"Misc",NA
233608,"BULL POND",NA,"FL",NA,2.3,"www.seminole.wateratlas.usf.edu",4.19871542965,"Drainage","manual",30.67933417,-86.37700917,"University",NA
188233,"CARRAWAY LAKE",NA,"FL",1,NA,"www.idigbio.org",86.1188518685,"DrainageLk","manual",29.17321444,-81.32286083,"Misc",NA
213000,"CHERRY LAKE",NA,"FL",3.9624,NA,"navionics",194.023650111,"Isolated","manual",30.60852583,-83.41172028,"Misc",NA
195565,"CLARKE, LAKE",NA,"FL",4.2672,NA,"navionics",22.6433808816,"Drainage","manual",26.64459833,-80.07384944,"Misc",NA
210451,"CLEAR LAKE",NA,"FL",1.524,NA,"www.swfwmd.state.fl.us",7.57000232904,"Headwater","manual",28.36248778,-82.47855083,"Government",NA
232126,"COMPASS LAKE",NA,"FL",11.5824,NA,"navionics",235.519111355,"Drainage","manual",30.58894194,-85.38266806,"Misc",NA
195577,"COOT BAY",NA,"FL",1.2192,NA,"navionics",448.037082989,"DrainageLk","manual",25.18696972,-80.91377528,"Misc",NA
213253,"CORBETT ESTATE POND",NA,"FL",1.524,NA,"navionics",38.4488894247,"Isolated","manual",30.54571056,-83.11313833,"Misc",NA
192034,"COWPEN LAKE",NA,"FL",5.7912,NA,"navionics",28.0075227499,"Isolated","manual",29.60573639,-82.00962528,"Misc",NA
232510,"CREWS LAKE",NA,"FL",4.572,NA,"navionics",11.5531988704,"Drainage","manual",30.43207667,-85.91986417,"Misc",NA
205118,"DEATON, LAKE",NA,"FL",4.572,NA,"navionics",214.517332708,"Drainage","manual",28.83829611,-81.98300778,"Misc",NA
234510,"DEER POINT LAKE",NA,"FL",18.8976,NA,"navionics",1837.43191474,"DrainageLk","manual",30.28939472,-85.59359667,"Misc",NA
197125,"EASY, LAKE",NA,"FL",8.8392,NA,"navionics",135.971088432,"Drainage","manual",27.85799833,-81.5594825,"Misc",NA
203121,"HANCOCK, LAKE",NA,"FL",1.524,NA,"navionics",1854.91859599,"DrainageLk","manual",27.96566361,-81.84648111,"Misc",NA
207560,"HOLLOWAY, LAKE",NA,"FL",3.3528,NA,"navionics",10.0506413578,"Isolated","manual",28.03407,-81.91706472,"Misc",NA
205313,"IDA, LAKE",NA,"FL",4.572,2.83464,"www.swfwmd.state.fl.us",6.9080567525,"Headwater","manual",28.05068528,-81.73237083,"Government",NA
198081,"IDA, LAKE",NA,"FL",5.4864,NA,"navionics",59.5503178965,"DrainageLk","manual",26.477965,-80.08109778,"Misc",NA
194337,"JACKSON, LAKE",NA,"FL",1.524,NA,"navionics",404.150783963,"DrainageLk","manual",27.91193639,-81.15158028,"Misc",NA
197318,"LAKE BUMBY",NA,"FL",3.3528,NA,"navionics",4.45226757464,"Isolated","manual",28.48624611,-81.39401389,"Misc",NA
189382,"LAKE CLAIRE",NA,"FL",3.6576,2.286,"books.google.com",2.89399596144,"Isolated","manual",28.60956139,-81.19892111,"Misc",NA
194611,"LAKE DAVENPORT",NA,"FL",32.9184,NA,"www.lakelubbers.com",17.4146868389,"Isolated","manual",28.16011056,-81.61032,"Misc",NA
190373,"LAKE DIAS",NA,"FL",4.2672,NA,"navionics",281.413195914,"DrainageLk","manual",29.15955583,-81.316005,"Misc",NA
212461,"LAKE GORDON",NA,"FL",2.1336,NA,"navionics",33.5928693458,"Drainage","manual",27.84777556,-81.63247389,"Misc",NA
208380,"LAKE HOOKER",NA,"FL",0.9144,0.6096,"www.tampabay.wateratlas.usf.edu",18.6467902545,"Drainage","manual",27.98067028,-82.26352444,"University",NA
187095,"LAKE MAITLAND",NA,"FL",7.62,NA,"navionics",9.97492211909,"Isolated","manual",28.62433167,-81.38156222,"Misc",NA
205356,"LAKE MANATEE",NA,"FL",11.5824,NA,"pubs.usgs.gov",477.39744044,"Headwater","manual",27.48918389,-82.35264806,"Government",NA
196835,"LAKE MANGONIA",NA,"FL",10.0584,NA,"navionics",227.08224309,"Drainage","manual",26.73876472,-80.07025417,"Misc",NA
212447,"LAKE MARIAM",NA,"FL",1.8288,NA,"navionics",73.4105346173,"Drainage","manual",28.01551611,-81.69349111,"Misc",NA
196859,"LAKE MARIAN",NA,"FL",4.572,NA,"navionics",1888.14534859,"Drainage","manual",27.86790556,-81.06945389,"Misc",NA
232646,"LAKE MARTIN",NA,"FL",4.2672,NA,"navionics",55.4924238698,"DrainageLk","manual",30.13745306,-85.61510694,"Misc",NA
191324,"LAKE MCCOY",NA,"FL",NA,1.8288,"www.orange.wateratlas.usf.edu",36.7801632754,"Isolated","manual",28.68758083,-81.49525361,"University",NA
207692,"LAKE MCLEOD",NA,"FL",9.7536,NA,"navionics",181.693541836,"Isolated","manual",27.97147222,-81.74772222,"Misc",NA
191956,"LAKE WASHINGTON",NA,"FL",2.7432,NA,"navionics",1215.96869327,"DrainageLk","manual",28.12029528,-80.75223778,"Misc",NA
230494,"LAKE WIMICO",NA,"FL",6.096,NA,"navionics",1632.1933542,"Drainage","manual",29.79322556,-85.14012833,"Misc",NA
185919,"LONG LAKE",NA,"FL",NA,5.1816,"www.orange.wateratlas.usf.edu",48.0758368269,"Drainage","manual",28.61965583,-81.46492583,"University",NA
211597,"LONG LAKE",NA,"FL",5.1816,NA,"navionics",5.81545384794,"Isolated","manual",28.0957825,-82.45994944,"Misc",NA
188723,"LOUGHMAN LAKE",NA,"FL",0.9144,NA,"fishing-app.gpsnauticalcharts.com",264.525572921,"DrainageLk","manual",28.64102611,-80.93488917,"Misc",NA
235846,"LOWER MEMORIAL LAKE",NA,"FL",1.8288,NA,"navionics",14.0848446754,"Drainage","manual",30.45929833,-86.53197167,"Misc",NA
186812,"LOWERY, LAKE",NA,"FL",3.6576,2.1336,"polk.wateratlas.usf.edu",361.552273925,"Drainage","manual",28.13314694,-81.6696425,"University",NA
204211,"MARTHA, LAKE",NA,"FL",6.4008,NA,"navionics",34.8551212594,"Isolated","manual",28.03017056,-81.72079889,"Misc",NA
236103,"MERIAL LAKE",NA,"FL",17.6784,NA,"navionics",103.113689233,"Isolated","manual",30.38873056,-85.66674222,"Misc",NA
227455,"MERRITT'S MILL POND",NA,"FL",2.7432,NA,"fishing-app.gpsnauticalcharts.com",110.821295344,"Drainage","manual",30.78380389,-85.15697528,"Misc",NA
189083,"NORTH GRASSHOPPER LAKE",NA,"FL",5.1816,NA,"navionics",44.5847887436,"Isolated","manual",29.14357333,-81.60642861,"Misc",NA
208700,"OKAHUMPKA, LAKE",NA,"FL",2.7432,NA,"navionics",162.439621707,"DrainageLk","manual",28.82599917,-82.00118806,"Misc",NA
207735,"PADGETT LAKE",NA,"FL",8.96112,2.83464,"lakepadgettisd.org",5.72796936053,"Isolated","manual",27.92400639,-81.60971556,"Misc",NA
208973,"PARRISH LAKE",NA,"FL",NA,1.46304,"wikivisually.com",1440.35541204,"Isolated","manual",27.62810667,-82.34800056,"Misc",NA
204397,"RALEIGH, LAKE",NA,"FL",5.7912,NA,"navionics",9.58404573433,"Isolated","manual",28.10578222,-82.583545,"Misc",NA
192680,"ROUND LAKE",NA,"FL",7.3152,NA,"navionics",5.06624667511,"Isolated","manual",28.671595,-81.19189444,"Misc",NA
187128,"RUTH, LAKE",NA,"FL",3.3528,NA,"navionics",4.58390003461,"Isolated","manual",28.71492444,-81.33815333,"Misc",NA
202130,"RUTH, LAKE",NA,"FL",5.7912,NA,"navionics",6.83682327834,"Isolated","manual",28.02455611,-81.61401194,"Misc",NA
214507,"SAMPALA LAKE",NA,"FL",5.4864,NA,"www.myflorida.com",183.226540064,"Isolated","manual",30.385245,-83.53723639,"Misc",NA
207514,"SCOTT LAKE",NA,"FL",3.6576,NA,"navionics",101.433646112,"Headwater","manual",27.95939694,-81.93795222,"Misc",NA
202699,"SOUTH LAKE",NA,"FL",1.8288,NA,"navionics",5.67967576997,"Isolated","manual",25.72001111,-80.41781722,"Misc",NA
212477,"STARR, LAKE",NA,"FL",8.8392,NA,"navionics",41.0524083871,"Isolated","manual",27.95716667,-81.58627611,"Misc",NA
203307,"SUNSHINE LAKE",NA,"FL",6.096,NA,"fishing-app.gpsnauticalcharts.com",6.43202199438,"Drainage","manual",28.12009972,-82.52640083,"Misc",NA
210155,"SURVEYORS LAKE",NA,"FL",3.3528,NA,"navionics",113.035215737,"DrainageLk","manual",27.83806694,-81.69284222,"Misc",NA
186020,"SYLVAN, LAKE",NA,"FL",NA,6.096,"www.orange.wateratlas.usf.edu",5.27807308287,"Isolated","manual",28.59873111,-81.33450389,"University",NA
193439,"TURKEY LAKE",NA,"FL",4.2672,NA,"navionics",131.208105118,"Drainage","manual",28.49834167,-81.46518833,"Misc",NA
201885,"UNKNOWN",NA,"FL",1.524,NA,"navionics",237.674999707,"Isolated","manual",26.47910833,-81.76252222,"Misc",NA
199365,"UNKNOWN",NA,"FL",1,NA,"rookerybay.org",32.6039695057,"Isolated","manual",26.00276222,-81.68044639,"Misc",NA
204940,"UNKNOWN",NA,"FL",6.4008,NA,"navionics",207.181452191,"Headwater","manual",27.92139806,-82.15343833,"Misc",NA
209984,"UNKNOWN",NA,"FL",1.8288,NA,"navionics",26.9536589933,"DrainageLk","manual",28.08822167,-81.93426222,"Misc",NA
203295,"UNKNOWN",NA,"FL",7.0104,NA,"navionics",6.09934847705,"Drainage","manual",28.12184306,-82.53876778,"Misc",NA
211410,"UNKNOWN",NA,"FL",5.1816,NA,"navionics",6.23221378329,"Drainage","manual",28.09910889,-82.60275083,"Misc",NA
207906,"UNKNOWN",NA,"FL",6.096,NA,"www.tampabay.wateratlas.usf.edu",7.53273251795,"DrainageLk","manual",28.16238806,-82.58563028,"University",NA
214263,"UNNAMED LAKE",NA,"FL",6.096,NA,"books.google.com",21.9900727264,"Drainage","manual",30.30272528,-82.93144861,"Misc",NA
206555,"UNNAMED LARGE LAKE",NA,"FL",9.144,3.048,"www.lakehomes.com",240.956008786,"Drainage","manual",28.10673667,-81.77863056,"Misc",NA
203993,"UNNAMED LARGE LAKE",NA,"FL",3.9624,NA,"navionics",130.993501472,"Isolated","manual",28.90517194,-81.99819278,"Misc",NA
222797,"UNNAMED SMALL LAKE",NA,"FL",3.9624,NA,"navionics",3.89588944636,"Isolated","manual",30.55800083,-84.25127389,"Misc",NA
193051,"WEST LAKE",NA,"FL",10.668,NA,"navionics",844.089250475,"Drainage","manual",25.21101778,-80.83633472,"Misc",NA
232002,"WHITE WESTERN LAKE",NA,"FL",9.144,NA,"navionics",74.3849084697,"Isolated","manual",30.40413972,-85.706065,"Misc",NA
187652,"WINDER, LAKE",NA,"FL",3.048,NA,"navionics",591.087317867,"DrainageLk","manual",28.26149111,-80.84683972,"Misc",NA
185378,"WOODRUFF, LAKE",NA,"FL",2.1336,NA,"navionics",905.04628897,"DrainageLk","manual",29.08465306,-81.40505611,"Misc",NA
207558,"BANANA LAKE",NA,"FL",2.1336,NA,"navionics",105.204809419,"DrainageLk","manual",27.97517278,-81.90288194,"Misc",NA
208738,"BEULAH, LAKE",NA,"FL",8.2296,NA,"navionics",7.38469436625,"Isolated","manual",28.03991389,-81.96893,"Misc",NA
207744,"BLUE LAKE",NA,"FL",10.668,NA,"navionics",14.6307746053,"DrainageLk","manual",27.43417222,-81.5123775,"Misc",NA
210126,"DINNER LAKE",NA,"FL",6.031992,4.401312,"www.polk.wateratlas.usf.edu",8.20625589633,"Isolated","manual",27.99364861,-81.78692833,"University",NA
206520,"FLORENCE LAKE",NA,"FL",2.7432,NA,"navionics",29.5520358307,"Headwater","manual",28.00459028,-81.68729306,"Misc",NA
211230,"LAKE ALFRED",NA,"FL",4.2672,1.524,"www.polk.wateratlas.usf.edu",273.754793917,"Drainage","manual",28.09517528,-81.73441806,"University",NA
212474,"LAKE ALTAMAHA",NA,"FL",5.7912,NA,"navionics",3.08538665611,"Isolated","manual",27.89123083,-81.59867611,"Misc",NA
212469,"LAKE LEE",NA,"FL",2.7432,NA,"navionics",2.80753846311,"Isolated","manual",28.04874917,-81.62602361,"Misc",NA
212468,"LAKE MENZIE",NA,"FL",5.7912,NA,"navionics",8.31374581758,"Isolated","manual",28.01955056,-81.61836167,"Misc",NA
196854,"LAKE NONA",NA,"FL",8.5344,NA,"navionics",237.709554185,"Isolated","manual",28.40867528,-81.27832222,"Misc",NA
208950,"LAKE TRACY",NA,"FL",7.9248,1.524,"www.polk.wateratlas.usf.edu",40.4023074943,"Headwater","manual",28.11039222,-81.63211972,"University",NA
206591,"SALT LAKE",NA,"FL",0.6096,NA,"navionics",29.557926728,"Isolated","manual",28.15676444,-82.73028222,"Misc",NA
203116,"UNKNOWN",NA,"FL",3.9624,NA,"navionics",1.57055194415,"Drainage","manual",26.58996417,-80.07497806,"Misc",NA
189242,"UNKNOWN SMALL LAKE",NA,"FL",7.9248,NA,"navionics",5.78720125582,"Drainage","manual",28.56656972,-81.38563611,"Misc",NA
186755,"UNNAMED SMALL LAKE",NA,"FL",7.0104,NA,"navionics",2.50190085039,"Drainage","manual",28.49039972,-81.77531694,"Misc",NA
207980,"UNNAMED SMALL LAKE",NA,"FL",3.3528,NA,"navionics",5.83428986865,"Isolated","manual",27.87821417,-82.51622806,"Misc",NA
211570,"UNNAMED SMALL LAKE",NA,"FL",4.572,NA,"navionics",2.39760151387,"DrainageLk","manual",28.10090944,-82.4686875,"Misc",NA
208985,"WALSINGHAM RESERVIOR",NA,"FL",6.4008,NA,"navionics",34.3862557369,"Drainage","manual",27.87952833,-82.80887222,"Misc",NA
235199,"WRIGHT BASIN",NA,"FL",1.2192,NA,"navionics",65.6670693539,"Drainage","manual",30.63882361,-87.00776,"Misc",NA
188390,"Lake Catherine",NA,"FL",7.0104,NA,"navionics",6.12081808433,"Isolated","manual",28.6419,-81.1257,"Misc",NA
189281,"Fairy lake",NA,"FL",4.8768,NA,"navionics",20.2375587187,"Isolated","manual",28.6877,-81.3349,"Misc",NA
188251,"Garden Lake",NA,"FL",2.7432,NA,"navionics",8.6960085195,"Drainage","manual",28.6296,-81.2821,"Misc",NA
191460,"Kewanee",NA,"FL",5.7912,NA,"navionics",1.73022987023,"Drainage","manual",28.6421,-81.3324,"Misc",NA
188187,"Lake Mobile",NA,"FL",4.572,NA,"navionics",9.82790411775,"Isolated","manual",28.6713,-81.3536,"Misc",NA
184850,"Lake Markham",NA,"FL",2.1336,NA,"navionics",28.5408027324,"Drainage","manual",28.7979,-81.3941,"Misc",NA
192505,"Yankee Lake",NA,"FL",1.8288,NA,"navionics",19.4857971256,"Drainage","manual",28.8163,-81.3879,"Misc",NA
170850,"Tallulah River - Near Clayton",NA,"GA",36.576,NA,"en.wikipedia.org",1022.95656753,"Drainage","manual",34.8352,-83.5538,"Misc",NA
170065,"Lake Hartwell At U.S. Highway 123",NA,"GA",6.096,NA,"fishing-app.gpsnauticalcharts.com",7299.16079116,"DrainageLk","manual",34.6111,-83.2283,"Misc",NA
170854,"Lake HARTwell- Log Creek At Highway 51",NA,"GA",18.288,NA,"fishing-app.gpsnauticalcharts.com",6296.70094361,"DrainageLk","manual",34.3847,-82.9286,"Misc",NA
170064,"Lake Russell - Beaver Dam Creek At Pearl M. Road",NA,"GA",19.812,NA,"fishing-app.gpsnauticalcharts.com",9957.98475442,"DrainageLk","manual",34.0944,-82.7311,"Misc",NA
171719,"Clarks Hill Lake - Savannah River At Russell Creek",NA,"GA",9.144,NA,"fishing-app.gpsnauticalcharts.com",16517.7893364,"DrainageLk","manual",33.9903,-82.5819,"Misc",NA
169272,"Clarks Hill Lake - Little River At Highway 47",NA,"GA",33.528,NA,"fishing-app.gpsnauticalcharts.com",10384.186886,"DrainageLk","manual",33.6927,-82.3388,"Misc",NA
172592,"Lake Oconee At Interstate 20",NA,"GA",9.144,NA,"fishing-app.gpsnauticalcharts.com",7056.06837217,"DrainageLk","manual",33.5356,-83.27,"Misc",NA
182817,"Lake Sinclair - Oconee River At Crooked Creek",NA,"GA",12.192,NA,"fishing-app.gpsnauticalcharts.com",5330.90636191,"DrainageLk","manual",33.2608,-83.2478,"Misc",NA
181374,"`Yellow River - Georgia Highway 212 near Stewart, Georgia`",NA,"GA",28.6512,NA,"en.wikipedia.org",1385.27373446,"DrainageLk","manual",33.3682,-83.8633,"Misc",NA
175462,"Lake Juliette - Midlake",NA,"GA",29.2608,NA,"fishing-app.gpsnauticalcharts.com",1352.2786072,"DrainageLk","manual",33.0464,-83.8106,"Misc",NA
181375,"Lake Tobesofkee 200 Meters DownRiver/Stream Tobesofkee Creek",NA,"GA",7.4676,NA,"fishing-app.gpsnauticalcharts.com",622.664724951,"DrainageLk","manual",32.8506,-83.8297,"Misc",NA
226351,"Warren Slough - Lake Blackshear",NA,"GA",2.7432,NA,"fishing-app.gpsnauticalcharts.com",37.8582736645,"Drainage","manual",31.9797,-83.9453,"Misc",NA
225409,"Lake Blackshear - Midlake",NA,"GA",4.7244,NA,"fishing-app.gpsnauticalcharts.com",3230.96555732,"DrainageLk","manual",31.9665,-83.9342,"Misc",NA
225408,"Flint River Reservoir - Dam Forebay",NA,"GA",6.096,5.1816,"en.wikipedia.org",249.702003778,"DrainageLk","manual",31.6033,-84.1365,"Misc",NA
229465,"Lake Seminole-0.7 Mile Ne Horseshoe Bend Boat Ramp",NA,"GA",9.144,3.048,"en.wikipedia.org",4249.45209457,"DrainageLk","manual",30.8492,-84.6464,"Misc",NA
230497,"Lake Lanier - Clarks Bridge (Hwy 284)",NA,"GA",47.5488,NA,"fishing-app.gpsnauticalcharts.com",15496.5330512,"DrainageLk","manual",34.3497,-83.7944,"Misc",NA
226442,"West Point Lake - New River Embayment",NA,"GA",24.6888,NA,"fishing-app.gpsnauticalcharts.com",9029.69624793,"DrainageLk","manual",33.1961,-85.0444,"Misc",NA
227457,"Lake Harding - Upper Lake (Chattahoochee Arm)",NA,"GA",33.8328,9.7536,"en.wikipedia.org",2014.54701247,"DrainageLk","manual",32.7379,-85.1125,"Misc",NA
227456,"Goat Rock Lake - Dam Forebay",NA,"GA",18.288,NA,"en.wikipedia.org",392.948541781,"DrainageLk","manual",32.6112,-85.0794,"Misc",NA
228443,"Lake Oliver - Dam Forebay",NA,"GA",15.24,NA,"en.wikipedia.org",729.486028754,"DrainageLk","manual",32.516,-85.0009,"Misc",NA
236203,"`Carters Lake (CR1) - Upper Lake, Coosawattee Arm`",NA,"GA",137.16,60.96,"en.wikipedia.org",1202.60577952,"DrainageLk","manual",34.6209,-84.6212,"Misc",NA
241077,"Cossawattee River UpRiver/Stream From Carters Dam",NA,"GA",4.2672,NA,"fishing-app.gpsnauticalcharts.com",329.844375578,"DrainageLk","manual",34.6108,-84.6758,"Misc",NA
273708,"Lake Chatuge LMP 12 at State Line  (aka Hiawassee River)",NA,"GA",28.0416,NA,"fishing-app.gpsnauticalcharts.com",2575.56257142,"Drainage","manual",34.9833,-83.7886,"Misc",NA
273758,"Lake Nottely (LMP15A) at Reece Creek",NA,"GA",30.48,NA,"fishing-app.gpsnauticalcharts.com",1480.33724872,"DrainageLk","manual",34.9115,-84.0506,"Misc",NA
172588,"Randy Pointer Lake",NA,"GA",17.3736,NA,"fishing-app.gpsnauticalcharts.com",233.922117129,"DrainageLk","manual",33.7403,-83.9377,"Misc",NA
180443,"Lake Oconee At Highway 44",NA,"GA",27.432,NA,"fishing-app.gpsnauticalcharts.com",5.95401477569,"Drainage","manual",33.4275,-83.2633,"Misc",NA
228441,"SPRING CREEK AT KNIGHTS REST NEAR BAINBRIDGE, GA",NA,"GA",6.096,NA,"fishing-app.gpsnauticalcharts.com",2909.85057041,"DrainageLk","manual",30.8305556,-84.7763889,"Misc",NA
460180,"Chatcolet Lake - 0.4 miles northwest of Rocky Point (USGS site 472120116451000)",NA,"ID",11,NA,"fishing-app.gpsnauticalcharts.com",1194.8641565,"DrainageLk","manual",47.35841,-116.7484,"Misc",NA
458728,"EAST CAUSEWAY, LITTORAL ZONE, COEUR D'ALENE LAKE",NA,"ID",6,4,"fishing-app.gpsnauticalcharts.com",234.058903464,"DrainageLk","manual",47.3788889,-116.7425,"Misc",NA
458686,"BLACK LAKE NR HARRISON, ID",NA,"ID",7.6,NA,"fishing-app.gpsnauticalcharts.com",153.929173251,"Drainage","manual",47.4487977,-116.6621195,"Misc",NA
457596,"ANDERSON LAKE NR HARRISON, ID",NA,"ID",4.6,NA,"fishing-app.gpsnauticalcharts.com",203.452531073,"Drainage","manual",47.466573,-116.7482339,"Misc",NA
459884,"MEDICINE LAKE NR HARRISON, ID",NA,"ID",4.6,NA,"fishing-app.gpsnauticalcharts.com",82.482492923,"Headwater","manual",47.4693559,-116.5843402,"Misc",NA
458316,"SWAN LAKE NR HARRISON, ID",NA,"ID",4.6,NA,"fishing-app.gpsnauticalcharts.com",270.786698001,"Drainage","manual",47.4707432,-116.6371196,"Misc",NA
458370,"THOMPSON LAKE NR HARRISON, ID",NA,"ID",7.6,NA,"fishing-app.gpsnauticalcharts.com",39.3275712325,"DrainageLk","manual",47.490463,-116.7218453,"Misc",NA
457654,"BULL RUN LAKE NR ROSE LAKE, ID",NA,"ID",83.2104,29.8704,"pubs.usgs.gov",41.0706694186,"Drainage","manual",47.5290811,-116.4760063,"Government",NA
459513,"ROSE LAKE NR ROSE LAKE, ID",NA,"ID",9.1,NA,"fishing-app.gpsnauticalcharts.com",143.169094527,"Headwater","manual",47.5521363,-116.467674,"Misc",NA
457977,"PEND OREILLE LAKE NEAR BAYVIEW, ID",NA,"ID",351,NA,"en.wikipedia.org",37540.4366547,"DrainageLk","manual",47.9590683,-116.5310293,"Misc",NA
463793,"MUD LAKE NR TERRETON ID",NA,"ID",1.5,NA,"en.wikipedia.org",1261.72406626,"DrainageLk","manual",43.8913889,-112.3580556,"Misc",NA
372121,"CLINTON LAKE",NA,"KS",16.764,2.1336,"en.wikipedia.org",2970.84228411,"DrainageLk","manual",38.921,-95.338,"Misc",NA
131190,"LA CYGNE LAKE",NA,"KS",12.4968,NA,"fishing-app.gpsnauticalcharts.com",970.004378442,"DrainageLk","manual",38.341,-94.654,"Misc",NA
384858,"CHANUTE SANTA FE LAKE",NA,"KS",8.50392,1.31064,"www.kdheks.gov",16.6674670599,"Headwater","manual",37.657,-95.454,"Government",NA
367485,"PONY CREEK LAKE",NA,"KS",10,3.4,"www.kdheks.gov",60.198732875,"Drainage","manual",39.947,-95.777,"Government",NA
383119,"EDNA CITY LAKE",NA,"KS",6.858,NA,"fishing-app.gpsnauticalcharts.com",5.58485287102,"Isolated","manual",37.036,-95.394,"Misc",NA
382241,"POLK DANIELS STATE FISHING LAKE",NA,"KS",5.5,NA,"www.kdheks.gov",26.2621038995,"DrainageLk","manual",37.461,-96.227,"Government",NA
112909,"HILLSDALE LAKE",NA,"KS",14,5.7,"www.kdheks.gov",1757.18783419,"DrainageLk","manual",38.659,-94.905,"Government",NA
374864,"LYON CO. STATE FISHING LAKE",NA,"KS",NA,10.3632,"ksoutdoors.com",53.264042739,"Isolated","manual",38.546,-96.058,"Misc",NA
385675,"BIG HILL LAKE TIMBER HILL DOCK",NA,"KS",NA,16.764,"fishing-app.gpsnauticalcharts.com",447.2918314,"Drainage","manual",37.29192,-95.4521,"Misc",NA
369586,"HERINGTON RESERVOIR",NA,"KS",9,3.2,"www.kdheks.gov",162.852610937,"Drainage","manual",38.662,-97.008,"Government",NA
385060,"TORONTO LAKE",NA,"KS",5.5,2.1,"www.kdheks.gov",929.800871973,"DrainageLk","manual",37.744,-95.926,"Government",NA
382706,"COUNCIL GROVE LAKE",NA,"KS",11,4.4,"www.kdheks.gov",1173.25505758,"DrainageLk","manual",38.684,-96.504,"Government",NA
374604,"POMONA LAKE",NA,"KS",10,NA,"www.kdheks.gov",1530.19868248,"DrainageLk","manual",38.653,-95.561,"Government",NA
369702,"MCPHERSON CO. STATE FISHING LAKE",NA,"KS",5.9436,NA,"fishing-app.gpsnauticalcharts.com",12.0667743546,"Headwater","manual",38.481,-97.469,"Misc",NA
384574,"SEDAN CITY SOUTH LAKE",NA,"KS",6.4008,NA,"fishing-app.gpsnauticalcharts.com",26.2358918234,"Isolated","manual",37.151,-96.208,"Misc",NA
373648,"LONE STAR LAKE",NA,"KS",11,NA,"www.kdheks.gov",71.8508236625,"Headwater","manual",38.84,-95.38,"Government",NA
377029,"HARVEY CO. WEST PARK LAKE",NA,"KS",2,NA,"www.kdheks.gov",5.08978710391,"Isolated","manual",38.074,-97.585,"Government",NA
384430,"WOODSON CO. STATE FISHING LAKE",NA,"KS",14.0208,NA,"fishing-app.gpsnauticalcharts.com",48.8341439283,"Headwater","manual",37.789,-95.843,"Misc",NA
378136,"AUGUSTA CITY LAKE",NA,"KS",5.4864,NA,"fishing-app.gpsnauticalcharts.com",74.2845454706,"Isolated","manual",37.699,-96.982,"Misc",NA
370141,"KIRWIN LAKE",NA,"KS",14.99616,6.096,"www.kdheks.gov",1279.17821289,"Drainage","manual",39.662,-99.132,"Government",NA
378188,"HAMILTON CO. STATE FISHING LAKE",NA,"KS",2,0.8,"www.kdheks.gov",18.2357133836,"Isolated","manual",38.029,-101.82,"Government",NA
65334,"LAKE CRAWFORD",NA,"KS",16,4.7,"www.kdheks.gov",59.1556277039,"Isolated","manual",37.644,-94.809,"Government",NA
376907,"CHENEY LAKE",NA,"KS",12.5,5.1,"www.kdheks.gov",3951.89978082,"DrainageLk","manual",37.729,-97.803,"Government",NA
372469,"SHAWNEE CO. STATE FISHING LAKE",NA,"KS",8.5344,NA,"fishing-app.gpsnauticalcharts.com",49.6941819443,"Headwater","manual",39.201,-95.804,"Misc",NA
369859,"SCOTT STATE FISHING LAKE",NA,"KS",4.572,1.88976,"www.kdheks.gov",44.6538830216,"Isolated","manual",38.691,-100.924,"Government",NA
69434,"SOUTH LAKE PARK",NA,"KS",NA,1.3,"www.kdheks.gov",1.62751355229,"Isolated","manual",38.97219,-94.67353,"Government",NA
373639,"WATERWORK'S LAKE",NA,"KS",3,NA,"www.kdheks.gov",4.0020273958,"Isolated","manual",38.875,-94.805,"Government",NA
374132,"TUTTLE CREEK LAKE",NA,"KS",15.24,NA,"web.archive.org",4850.28473262,"DrainageLk","manual",39.26,-96.596,"Misc",NA
385445,"THAYER OLD CITY LAKE",NA,"KS",7.3152,NA,"fishing-app.gpsnauticalcharts.com",9.59996956427,"Isolated","manual",37.4825,-95.4871,"Misc",NA
119100,"MIOLA LAKE",NA,"KS",8.5344,NA,"fishing-app.gpsnauticalcharts.com",74.7522709479,"Headwater","manual",38.585,-94.843,"Misc",NA
385035,"MINED LAND LAKE 17",NA,"KS",14.99616,7.9248,"www.kdheks.gov",7.0694022336,"Isolated","manual",37.294,-94.903,"Government",NA
371817,"WASHINGTON CO. STATE FISHING LAKE",NA,"KS",4,NA,"www.kdheks.gov",24.3207643824,"Isolated","manual",39.924,-97.117,"Government",NA
370560,"KANOPOLIS LAKE",NA,"KS",9.99744,3.99288,"www.kdheks.gov",1400.05316541,"DrainageLk","manual",38.617,-97.974,"Government",NA
385674,"JOHN REDMOND LAKE",NA,"KS",3.9624,1.49352,"www.kdheks.gov",3337.24939578,"DrainageLk","manual",38.238,-95.774,"Government",NA
367830,"BELLEVILLE CITY LAKE",NA,"KS",3,NA,"www.kdheks.gov",8.71803338156,"Isolated","manual",39.829,-97.619,"Government",NA
378571,"HORSESHOE LAKE",NA,"KS",6,NA,"www.kdheks.gov",2.68129429933,"Isolated","manual",37.7216,-97.41353,"Government",NA
374382,"POTTAWATOMIE STATE FISHING LAKE #2",NA,"KS",9.144,NA,"ksoutdoors.com",28.7220759751,"Isolated","manual",39.229,-96.526,"Misc",NA
378237,"VETERAN'S LAKE",NA,"KS",3.81,NA,"fishing-app.gpsnauticalcharts.com",5.18889073591,"Isolated","manual",38.3708,-98.7952,"Misc",NA
382583,"ALTAMONT CITY MAIN LAKE",NA,"KS",4,1.7,"www.kdheks.gov",8.70205109374,"Isolated","manual",37.14,-95.288,"Government",NA
381134,"WELLINGTON LAKE",NA,"KS",7,NA,"www.kdheks.gov",212.473696291,"Isolated","manual",37.214,-97.526,"Government",NA
382704,"ELK CITY LAKE",NA,"KS",8,3.2,"www.kdheks.gov",1379.55101523,"DrainageLk","manual",37.275,-95.788,"Government",NA
370119,"LAKEWOOD PARK LAKE",NA,"KS",4,1.7,"www.kdheks.gov",4.46344668256,"Isolated","manual",38.847,-97.588,"Government",NA
369331,"MILFORD LAKE",NA,"KS",16,7.4,"www.kdheks.gov",5911.3867927,"DrainageLk","manual",39.081,-96.903,"Government",NA
373647,"LAKE SHAWNEE",NA,"KS",14,4.3,"www.kdheks.gov",154.720517997,"Headwater","manual",39.014,-95.628,"Government",NA
372628,"PERRY LAKE",NA,"KS",16,6.5,"www.kdheks.gov",4357.95888366,"DrainageLk","manual",39.119,-95.427,"Government",NA
371150,"LEAVENWORTH CO. STATE FISHING LAKE",NA,"KS",13.1064,NA,"fishing-app.gpsnauticalcharts.com",61.4645428972,"Headwater","manual",39.123,-95.153,"Misc",NA
378789,"MEADE LAKE",NA,"KS",3.5,NA,"www.kdheks.gov",27.0581523035,"Isolated","manual",37.166,-100.433,"Government",NA
381189,"ANTHONY CITY LAKE",NA,"KS",4,1.8,"www.kdheks.gov",32.3069188206,"Isolated","manual",37.174,-98.052,"Government",NA
385031,"MINED LAND LAKE 42",NA,"KS",0.09144,0.03048,"www.kdheks.gov",1.55553271538,"Isolated","manual",37.262,-94.924,"Government",NA
130153,"BOURBON CO. STATE FISHING LAKE",NA,"KS",10,3.4,"www.kdheks.gov",37.5746471436,"Isolated","manual",37.797,-95.065,"Government",NA
100533,"PLAYTER'S LAKE",NA,"KS",2.01168,0.79248,"www.kdheks.gov",1.47449438689,"Isolated","manual",37.4029,-94.7133,"Government",NA
383241,"MINED LAND LAKE 44",NA,"KS",13.50264,7.13232,"www.kdheks.gov",18.2300771687,"Isolated","manual",37.27,-94.924,"Government",NA
370302,"ANTELOPE LAKE",NA,"KS",3.2004,NA,"fishing-app.gpsnauticalcharts.com",27.2481431079,"Drainage","manual",39.374,-100.111,"Misc",NA
374603,"CEDAR VALLEY LAKE",NA,"KS",9.9,3.4,"www.kdheks.gov",126.203166441,"Drainage","manual",38.256,-95.312,"Government",NA
371149,"DOUGLAS CO. STATE FISHING LAKE",NA,"KS",9,NA,"www.kdheks.gov",72.098758079,"Headwater","manual",38.804,-95.158,"Government",NA
48733,"XENIA LAKE",NA,"KS",3.9624,NA,"www.kdheks.gov",24.5774914884,"Isolated","manual",37.97138,-94.98389,"Government",NA
375025,"OSAGE CO. STATE FISHING LAKE",NA,"KS",10,NA,"www.kdheks.gov",53.6373704858,"Headwater","manual",38.763,-95.673,"Government",NA
49745,"ATCHISON CO. STATE FISHING LAKE",NA,"KS",10,NA,"www.kdheks.gov",24.9608733196,"Drainage","manual",39.636,-95.172,"Government",NA
382118,"FALL RIVER LAKE",NA,"KS",7,3,"www.kdheks.gov",950.952142769,"DrainageLk","manual",37.653,-96.065,"Government",NA
386204,"MINED LAND LAKE 23",NA,"KS",4.99872,2.80416,"www.kdheks.gov",12.923326963,"Isolated","manual",37.233,-94.982,"Government",NA
373117,"GARDNER LAKE",NA,"KS",11,NA,"www.kdheks.gov",43.1702751988,"Isolated","manual",38.853,-94.933,"Government",NA
385764,"EUREKA LAKE",NA,"KS",8.5344,NA,"fishing-app.gpsnauticalcharts.com",102.145974224,"Drainage","manual",37.898,-96.291,"Misc",NA
377747,"PRATT COUNTY LAKE",NA,"KS",2.5,NA,"www.kdheks.gov",19.4471213673,"Headwater","manual",37.6298,-98.6813,"Government",NA
385332,"NEW YATES CENTER LAKE",NA,"KS",11.2776,NA,"fishing-app.gpsnauticalcharts.com",73.7941026418,"Headwater","manual",37.834,-95.803,"Misc",NA
139425,"TROY FAIR LAKE",NA,"KS",NA,1.7,"www.kdheks.gov",1.5423299615,"Drainage","manual",39.7886,-95.1005,"Government",NA
70400,"LANSING CITY LAKE",NA,"KS",NA,1.7,"www.kdheks.gov",1.10454069974,"Isolated","manual",39.244,-94.883,"Government",NA
58087,"PITTSBURG COLLEGE LAKE",NA,"KS",2.01168,0.79248,"www.kdheks.gov",1.05313941132,"Isolated","manual",37.3903,-94.6983,"Government",NA
371178,"CEDAR LAKE",NA,"KS",4.2672,1.88976,"www.kdheks.gov",24.7394302944,"Drainage","manual",38.847,-94.847,"Government",NA
383869,"MARION LAKE",NA,"KS",9,3.4,"www.kdheks.gov",2561.1706975,"DrainageLk","manual",38.371,-97.087,"Government",NA
386762,"MINED LAND LAKE 30",NA,"KS",18.01368,9.4488,"ksoutdoors.com",9.80833312996,"Isolated","manual",37.222,-95.025,"Misc",NA
377413,"WINFIELD CITY LAKE",NA,"KS",12.5,NA,"www.kdheks.gov",396.246460827,"Drainage","manual",37.353,-96.892,"Government",NA
373129,"CENTRALIA LAKE",NA,"KS",12.5,NA,"www.kdheks.gov",154.816758871,"Headwater","manual",39.70444,-96.15333,"Government",NA
373436,"LAKE WABAUNSEE",NA,"KS",11.5,NA,"www.kdheks.gov",84.7819909723,"Headwater","manual",38.866,-96.196,"Government",NA
369900,"PLAINVILLE TOWNSHIP LAKE",NA,"KS",2.01168,0.79248,"www.kdheks.gov",36.4959104765,"Isolated","manual",39.22525,-99.31931,"Government",NA
378728,"POINT OF ROCKS LAKE",NA,"KS",2,NA,"www.kdheks.gov",1.77047043316,"Isolated","manual",37.116,-101.912,"Government",NA
374703,"LEBO CITY LAKE",NA,"KS",NA,0.8,"www.kdheks.gov",24.6266424241,"Headwater","manual",38.425,-95.887,"Government",NA
378748,"LAKE COLDWATER",NA,"KS",6.5,2.5,"www.kdheks.gov",94.4453139123,"Drainage","manual",37.245,-99.35,"Government",NA
374847,"SPRING CREEK PARK LAKE",NA,"KS",NA,0.8,"www.kdheks.gov",3.60553833994,"Headwater","manual",38.754,-95.162,"Government",NA
370278,"WEBSTER LAKE",NA,"KS",12.00912,4.8768,"www.kdheks.gov",383.768175719,"DrainageLk","manual",39.403,-99.427,"Government",NA
369590,"SMOKY HILL GARDEN LAKE",NA,"KS",2.98704,1.31064,"www.kdheks.gov",5.18698723035,"Isolated","manual",39.1876,-101.757,"Government",NA
372914,"ALMA CITY LAKE",NA,"KS",12.4,NA,"www.kdheks.gov",10.0058080965,"Isolated","manual",38.979,-96.262,"Government",NA
372068,"LAKE DABINAWA",NA,"KS",7.65048,NA,"cpcb.ku.edu",31.81350292,"Drainage","manual",39.132,-95.24,"University",NA
377971,"HODGEMAN CO. STATE FISHING LAKE",NA,"KS",5.5,NA,"www.kdheks.gov",1.38971126591,"Isolated","manual",38.048,-99.825,"Government",NA
370111,"SALINE CO. STATE FISHING LAKE",NA,"KS",3.6576,NA,"www.google.com",8.95059690616,"Isolated","manual",38.902,-97.655,"Misc",NA
385093,"CHASE CO. STATE FISHING LAKE",NA,"KS",10,NA,"www.kdheks.gov",42.8375494115,"Isolated","manual",38.37,-96.582,"Government",NA
374750,"GARNETT LAKE",NA,"KS",11,NA,"www.kdheks.gov",15.4343313966,"Isolated","manual",38.305,-95.244,"Government",NA
367094,"SABETHA CITY LAKE",NA,"KS",NA,0.8,"www.kdheks.gov",43.300145387,"Drainage","manual",39.907,-95.904,"Government",NA
384243,"LAKE TANKO",NA,"KS",2.01168,0.79248,"www.kdheks.gov",6.81438169985,"Isolated","manual",37.2591,-95.5523,"Government",NA
369621,"ROOKS CO. STATE FISHING LAKE",NA,"KS",2.98704,1.31064,"www.kdheks.gov",11.6357468881,"Drainage","manual",39.402,-99.319,"Government",NA
372473,"SABETHA WATERSHED POND",NA,"KS",4,NA,"www.kdheks.gov",10.3554229098,"Drainage","manual",39.87933,-95.79756,"Government",NA
376954,"STONE LAKE",NA,"KS",4,NA,"www.kdheks.gov",15.6699087941,"Isolated","manual",38.3524,-98.7716,"Government",NA
373011,"MYER'S POND",NA,"KS",1.5,NA,"www.kdheks.gov",5.33995078097,"Isolated","manual",39.0103,-95.597,"Government",NA
373121,"NEW OLATHE LAKE",NA,"KS",13.4112,5.54736,"www.kdheks.gov",58.0163693608,"DrainageLk","manual",38.881,-94.875,"Government",NA
373498,"LAKEVIEW ESTATES LAKE",NA,"KS",4,NA,"www.kdheks.gov",6.90961425254,"Isolated","manual",38.944,-95.7681,"Government",NA
382582,"ALTAMONT CITY NORTH LAKE",NA,"KS",3,1.3,"www.kdheks.gov",1.55854242266,"Isolated","manual",37.14316,-95.28938,"Government",NA
370277,"CEDAR BLUFF LAKE",NA,"KS",18.98904,7.80288,"www.kdheks.gov",2403.33095249,"DrainageLk","manual",38.786,-99.727,"Government",NA
384023,"MADISON CITY LAKE",NA,"KS",9.7536,NA,"fishing-app.gpsnauticalcharts.com",40.5092453095,"Headwater","manual",38.107,-96.147,"Misc",NA
369329,"RIMROCK PARK LAKE",NA,"KS",3.3528,1.49352,"www.kdheks.gov",1.19578174862,"Isolated","manual",39.0214,-96.8501,"Government",NA
69400,"MIAMI CO. STATE FISHING LAKE",NA,"KS",1.5,NA,"www.kdheks.gov",45.0221846191,"Isolated","manual",38.42,-94.793,"Government",NA
367585,"LOVEWELL LAKE",NA,"KS",9,3.6,"www.kdheks.gov",1157.64601534,"Drainage","manual",39.891,-98.032,"Government",NA
370553,"HERINGTON CITY LAKE",NA,"KS",7.0104,2.71272,"www.kdheks.gov",69.0170443757,"Drainage","manual",38.668,-96.998,"Government",NA
118019,"PARKER CITY LAKE",NA,"KS",6.096,NA,"fishing-app.gpsnauticalcharts.com",3.06343685674,"Isolated","manual",38.3188,-94.9995,"Misc",NA
384927,"ALTAMONT CITY WEST LAKE",NA,"KS",4,1.7,"www.kdheks.gov",4.50420125838,"Isolated","manual",37.14,-95.293,"Government",NA
90343,"FORT SCOTT CITY LAKE",NA,"KS",12.192,NA,"fishing-app.gpsnauticalcharts.com",136.33587113,"Headwater","manual",37.788,-94.757,"Misc",NA
380821,"BARBER CO. STATE FISHING LAKE",NA,"KS",9,NA,"www.kdheks.gov",11.9144203111,"DrainageLk","manual",37.296,-98.581,"Government",NA
369122,"ATWOOD TOWNSHIP LAKE",NA,"KS",1.8288,NA,"fishing-app.gpsnauticalcharts.com",11.9801779604,"Drainage","manual",39.8161,-101.042,"Misc",NA
386157,"BARTLETT CITY LAKE",NA,"KS",2.01168,0.79248,"www.kdheks.gov",6.50599481525,"Isolated","manual",37.059,-95.216,"Government",NA
372114,"LENEXA CITY LAKE",NA,"KS",12.192,NA,"www.kansasriverscience.org",11.183499446,"Isolated","manual",38.966,-94.837,"Misc",NA
138382,"CEDAR CREEK RESERVOIR",NA,"KS",15.24,6.096,"www.kdheks.gov",88.246400932,"Drainage","manual",37.82,-94.793,"Government",NA
378468,"HAIN STATE FISHING LAKE",NA,"KS",1.524,NA,"ksoutdoors.com",1.36038066714,"Isolated","manual",37.854,-99.858,"Misc",NA
372872,"OGDEN CITY LAKE",NA,"KS",2,NA,"www.kdheks.gov",5.73859893198,"Isolated","manual",39.101,-96.708,"Government",NA
374022,"NEBO WATERSHED LAKE",NA,"KS",2.5,NA,"www.kdheks.gov",12.2879673952,"Drainage","manual",39.447,-95.597,"Government",NA
374134,"STROWBRIDGE RESERVOIR",NA,"KS",8.5,NA,"www.kdheks.gov",98.4299568512,"Headwater","manual",38.817,-95.641,"Government",NA
378184,"EL DORADO LAKE",NA,"KS",15.51432,6.4008,"www.kdheks.gov",2997.69323724,"DrainageLk","manual",37.846,-96.813,"Government",NA
53987,"EDGERTON CITY LAKE",NA,"KS",4,NA,"www.kdheks.gov",2.86847071569,"Headwater","manual",38.7637,-95.004,"Government",NA
42541,"HIAWATHA CITY LAKE",NA,"KS",5.5,2.2,"www.kdheks.gov",2.91656672207,"Isolated","manual",39.826,-95.528,"Government",NA
385293,"GRIDLEY CITY LAKE",NA,"KS",2.98704,1.31064,"www.kdheks.gov",13.7950772697,"Headwater","manual",38.113,-95.877,"Government",NA
115970,"LOUISBURG OLD LAKE",NA,"KS",6.096,NA,"fishing-app.gpsnauticalcharts.com",8.68842014515,"Isolated","manual",38.6081,-94.6731,"Misc",NA
382222,"MOLINE CITY SF LAKE",NA,"KS",7.62,NA,"ksoutdoors.com",5.20009311729,"Isolated","manual",37.3655,-96.3301,"Misc",NA
376772,"LAKE AFTON",NA,"KS",6,NA,"www.kdheks.gov",66.4542352989,"Isolated","manual",37.605,-97.629,"Government",NA
72453,"ROCK CREEK LAKE",NA,"KS",5,2,"www.kdheks.gov",30.0629783438,"DrainageLk","manual",37.816,-94.754,"Government",NA
372039,"MISSION LAKE",NA,"KS",4.2,1.9,"www.kdheks.gov",50.9066644306,"Headwater","manual",39.673,-95.517,"Government",NA
370082,"JEWELL CO. STATE FISHING LAKE",NA,"KS",6.7,NA,"www.kdheks.gov",16.0203831702,"Isolated","manual",39.698,-98.281,"Government",NA
378067,"CADILLAC LAKE",NA,"KS",0.5,NA,"www.kdheks.gov",2.60461070665,"Isolated","manual",37.735,-97.459,"Government",NA
383874,"COUNCIL GROVE CITY LAKE",NA,"KS",10.9728,4.2672,"www.kdheks.gov",155.627486174,"Headwater","manual",38.677,-96.555,"Government",NA
378264,"STERLING CITY LAKE",NA,"KS",6.096,NA,"fishing-app.gpsnauticalcharts.com",3.39311627888,"Isolated","manual",38.2035,-98.2024,"Misc",NA
382431,"MONTGOMERY CO. STATE FISHING LAKE",NA,"KS",6.4008,2.49936,"www.kdheks.gov",31.6640242504,"Isolated","manual",37.162,-95.687,"Government",NA
383173,"NEOSHO CO. STATE FISHING LAKE",NA,"KS",7.9248,2.8956,"www.kdheks.gov",29.4407298837,"Headwater","manual",37.421,-95.198,"Government",NA
369694,"OTTAWA CO. STATE FISHING LAKE",NA,"KS",3.3528,1.49352,"www.kdheks.gov",38.6713843473,"Drainage","manual",39.106,-97.572,"Government",NA
368583,"JAMESTOWN WILDLIFE AREA",NA,"KS",0.8,NA,"www.kdheks.gov",273.883218594,"Isolated","manual",39.641,-97.897,"Government",NA
374361,"LAKE IDLEWILD",NA,"KS",1,NA,"www.kdheks.gov",2.51043875394,"Isolated","manual",39.709,-96.745,"Government",NA
383428,"SEVERY CITY LAKE",NA,"KS",4.2672,NA,"fishing-app.gpsnauticalcharts.com",4.43783399928,"Isolated","manual",37.6214,-96.1733,"Misc",NA
376886,"BUTLER CO. STATE FISHING LAKE",NA,"KS",2.98704,1.31064,"www.kdheks.gov",41.0559566352,"Drainage","manual",37.548,-96.694,"Government",NA
46637,"PLEASANTON RESERVOIR",NA,"KS",8.6,3.1,"www.kdheks.gov",39.5340880376,"Isolated","manual",38.196,-94.689,"Government",NA
386379,"OLPE CITY LAKE",NA,"KS",4.8768,2.01168,"www.kdheks.gov",30.7917934197,"Headwater","manual",38.251,-96.184,"Government",NA
371927,"NEW ALMA CITY LAKE",NA,"KS",13,NA,"www.kdheks.gov",20.459380437,"Headwater","manual",38.976,-96.298,"Government",NA
383274,"PARSONS LAKE",NA,"KS",5.4864,2.10312,"www.kdheks.gov",332.108170591,"Headwater","manual",37.402,-95.334,"Government",NA
382439,"WILSON CO. STATE FISHING LAKE",NA,"KS",11,NA,"www.kdheks.gov",44.9486817509,"Isolated","manual",37.693,-95.677,"Government",NA
373128,"PIERSON PARK LAKE",NA,"KS",4,NA,"www.kdheks.gov",4.67657927094,"Isolated","manual",39.068,-94.712,"Government",NA
374663,"CRYSTAL LAKE",NA,"KS",4,NA,"www.kdheks.gov",5.79470743961,"Isolated","manual",38.268,-95.245,"Government",NA
369783,"FOSSIL LAKE",NA,"KS",2.98704,1.31064,"www.kdheks.gov",17.2610843492,"Headwater","manual",38.861,-98.848,"Government",NA
370558,"GEARY CO. STATE FISHING LAKE",NA,"KS",12.00912,3.9624,"www.kdheks.gov",18.822267594,"Drainage","manual",38.904,-96.865,"Government",NA
383968,"MOLINE RESERVOIR",NA,"KS",5,NA,"www.kdheks.gov",72.1402408624,"Isolated","manual",37.388,-96.313,"Government",NA
377804,"MINGENBACK LAKE",NA,"KS",1,NA,"www.kdheks.gov",5.09914997581,"Drainage","manual",38.373,-97.651,"Government",NA
382496,"THAYER NEW CITY LAKE",NA,"KS",9,NA,"www.kdheks.gov",16.5711850719,"Isolated","manual",37.483,-95.502,"Government",NA
91315,"BROWN CO. STATE FISHING LAKE",NA,"KS",4.5,NA,"www.kdheks.gov",26.618347568,"Headwater","manual",39.845,-95.376,"Government",NA
101511,"LAKE WARNOCK",NA,"KS",2,NA,"www.kdheks.gov",13.4964656229,"Drainage","manual",39.539,-95.149,"Government",NA
97451,"BIG ELEVEN LAKE",NA,"KS",NA,1.3,"www.kdheks.gov",1.27718489907,"Isolated","manual",39.1176,-94.6373,"Government",NA
376701,"HORSETHIEF CANYON LAKE",NA,"KS",12.9,NA,"www.kdheks.gov",92.7917714048,"Drainage","manual",38.062,-100.052,"Government",NA
374133,"BANNER CREEK LAKE",NA,"KS",10,NA,"www.kdheks.gov",197.418943489,"Drainage","manual",39.456,-95.766,"Government",NA
377732,"KIOWA CO. STATE FISHING LAKE",NA,"KS",2.1,NA,"www.kdheks.gov",8.18116733012,"Isolated","manual",37.612,-99.301,"Government",NA
378857,"RUSSELL LAKE",NA,"KS",2,NA,"www.kdheks.gov",2.58791556658,"Isolated","manual",37.17783,-101.33081,"Government",NA
372301,"WASHINGTON CO. SFL WETLAND",NA,"KS",4.8768,NA,"fishing-app.gpsnauticalcharts.com",3.62922169707,"Isolated","manual",39.932,-97.121,"Misc",NA
377003,"CAREY PARK LAKE",NA,"KS",4,NA,"www.kdheks.gov",31.73126145,"Isolated","manual",38.048,-97.84,"Government",NA
374471,"PRAIRIE LAKE",NA,"KS",7.3,NA,"www.kdheks.gov",24.6677758494,"Headwater","manual",39.487,-95.688,"Government",NA
378131,"WINFIELD PARK LAGOON",NA,"KS",2.01168,0.79248,"www.kdheks.gov",3.45446985349,"Isolated","manual",37.2495,-96.999,"Government",NA
384575,"SEDAN CITY NORTH LAKE",NA,"KS",7,NA,"www.kdheks.gov",12.509028404,"Isolated","manual",37.17,-96.218,"Government",NA
20441,"BRONSON CITY LAKE",NA,"KS",6,NA,"www.kdheks.gov",5.39806427505,"Isolated","manual",37.887,-95.033,"Government",NA
374787,"OSAGE CITY RESERVOIR",NA,"KS",3.048,1.3,"www.kdheks.gov",20.2398162865,"Isolated","manual",38.6178,-95.8329,"Government",NA
373026,"LAKE JIVARO",NA,"KS",10.668,NA,"en.wikipedia.org",29.9568263569,"Headwater","manual",39.007,-95.552,"Misc",NA
382629,"NEOSHO WILDLIFE AREA",NA,"KS",1.00584,0.09144,"www.kdheks.gov",236.824139402,"Isolated","manual",37.488,-95.125,"Government",NA
383619,"LE CLERE LAKE",NA,"KS",4.4196,NA,"fishing-app.gpsnauticalcharts.com",2.48848375451,"Isolated","manual",37.0529,-95.6409,"Misc",NA
386315,"MOLINE CITY LAKE #2",NA,"KS",7,NA,"www.kdheks.gov",10.2213484387,"Isolated","manual",37.351,-96.342,"Government",NA
384018,"PETER PAN POND",NA,"KS",1.9812,NA,"ksoutdoors.com",1.12815027357,"Isolated","manual",38.3945,-96.188,"Misc",NA
372529,"LITTLE LAKE",NA,"KS",2,NA,"www.kdheks.gov",3.67669570481,"Isolated","manual",39.669,-95.519,"Government",NA
370155,"LOGAN CO. STATE FISHING LAKE",NA,"KS",6.4008,NA,"ksoutdoors.com",18.1321406663,"Isolated","manual",38.9353,-101.239,"Misc",NA
377672,"QUIVERA LITTLE SALT MARSH",NA,"KS",1,NA,"www.kdheks.gov",293.056054617,"Isolated","manual",38.103,-98.486,"Government",NA
370590,"SHERIDAN CO. STATE FISHING LAKE",NA,"KS",4.8768,2.01168,"www.kdheks.gov",14.0013825317,"Headwater","manual",39.359,-100.228,"Government",NA
370444,"LOGAN CITY LAKE",NA,"KS",3.9624,1.70688,"www.kdheks.gov",9.47395857005,"Isolated","manual",39.629,-99.581,"Government",NA
377856,"HARVEY CO. EAST LAKE",NA,"KS",4.8768,2.01168,"www.kdheks.gov",62.1101854729,"DrainageLk","manual",38.047,-97.199,"Government",NA
385349,"YATES CENTER RESERVOIR",NA,"KS",5.4864,NA,"fishing-app.gpsnauticalcharts.com",46.1321327266,"Headwater","manual",37.8664,-95.75,"Misc",NA
377717,"FORD COUNTY LAKE",NA,"KS",4.3,NA,"www.kdheks.gov",3.43035253003,"Isolated","manual",37.825,-99.9181,"Government",NA
376707,"GOODMAN STATE FISHING LAKE",NA,"KS",3.5,NA,"www.kdheks.gov",7.61879148011,"Isolated","manual",38.386,-99.852,"Government",NA
371055,"GAGE PARK LAKE",NA,"KS",3,NA,"www.kdheks.gov",1.16165398039,"Isolated","manual",39.058,-95.73,"Government",NA
383854,"MINED LAND LAKE 12",NA,"KS",6.00456,3.26136,"www.kdheks.gov",2.88238553383,"Isolated","manual",37.259,-94.816,"Government",NA
383239,"MINED LAND LAKE NO. 42 WETLAND",NA,"KS",0.09144,0.03048,"www.kdheks.gov",7.1169643393,"Isolated","manual",37.253,-94.94,"Government",NA
376728,"QUIVERA BIG SALT MARSH",NA,"KS",1,NA,"www.kdheks.gov",3.7409659216,"Isolated","manual",38.183,-98.53,"Government",NA
382650,"MINED LAND LAKE 27",NA,"KS",10.48512,5.60832,"www.kdheks.gov",13.3525500725,"Isolated","manual",37.202,-95.048,"Government",NA
378457,"CONCANNON STATE FISHING LAKE",NA,"KS",3,1.3,"www.kdheks.gov",20.6697149498,"Drainage","manual",38.07,-100.563,"Government",NA
382664,"MINED LAND LAKE 22",NA,"KS",7.0104,3.81,"www.kdheks.gov",9.2442024788,"Isolated","manual",37.225,-94.992,"Government",NA
375063,"RICHMOND CITY LAKE",NA,"KS",8,NA,"www.kdheks.gov",5.21476120158,"Isolated","manual",38.393,-95.223,"Government",NA
272035,"LAKE BESHEAR - DAM",NA,"KY",10.668,3.048,"en.wikipedia.org",317.335915713,"DrainageLk","manual",37.148105,-87.682019,"Misc",NA
134751,"CARPENTER LAKE NEAR MACEO",NA,"KY",3.6576,NA,"app.fw.ky.gov",27.6660178995,"Isolated","manual",37.8456,-86.9814,"Government",NA
271180,"WILLISBURG LAKE NEAR WILLISBURG",NA,"KY",18.288,NA,"www.willisburglake.com",46.4997175142,"Drainage","manual",37.827557,-85.162596,"Misc",NA
260737,"ELMER DAVIS LAKE NEAR OWENTON",NA,"KY",16.764,NA,"app.fw.ky.gov",53.2506615706,"Drainage","manual",38.49539,-84.882014,"Government",NA
260786,"CORINTH LAKE NEAR CORINTH",NA,"KY",12.192,NA,"app.fw.ky.gov",31.4950407667,"Headwater","manual",38.5044,-84.5878,"Government",NA
260190,"WILLIAMSTOWN LAKE - DAM",NA,"KY",21.336,6.4008,"en.wikipedia.org",121.048401005,"Drainage","manual",38.6772,-84.5208,"Misc",NA
261000,"A.J. JOLLY LAKE - DAM",NA,"KY",12.192,NA,"app.fw.ky.gov",70.8049486539,"Drainage","manual",38.8772,-84.3856,"Government",NA
260595,"WILGREEN LAKE NEAR RICHMOND",NA,"KY",14.6,6.4,"von gruenigen, c. and borowski, w.s., 2010. heavy metal concentrations in water and surface sediments of wilgreen lake, madison county, kentucky.",57.3643106702,"Drainage","manual",37.7028,-84.3564,"Misc",NA
268933,"LAKE LINVILLE NEAR RENFRO VALLEY",NA,"KY",10.9728,4.8768,"en.wikipedia.org",144.115100671,"Drainage","manual",37.3861,-84.3403,"Misc",NA
270229,"WOOD CREEK LAKE - DAM",NA,"KY",38.7096,10.668,"laurelkytourism.com",252.980876646,"Drainage","manual",37.2128,-84.1983,"Misc",NA
261675,"WASHBURN LAKE NEAR DUKEHURST",NA,"KY",5.4864,NA,"app.fw.ky.gov",7.3425212872,"Headwater","manual",37.5181,-86.8489,"Government",NA
61697,"LAKE JERICHO NEAR JERICHO",NA,"KY",12.192,NA,"www.henrycountyky.com",50.3982985504,"Drainage","manual",38.4453,-85.2814,"Misc",NA
262959,"METCALFE COUNTY LAKE NEAR EDMONTON",NA,"KY",4.8768,NA,"app.fw.ky.gov",8.40879326173,"Drainage","manual",37.043588,-85.609961,"Government",NA
261131,"HERRINGTON LAKE - DAM",NA,"KY",75.8952,NA,"en.wikipedia.org",1072.89718228,"DrainageLk","manual",37.7781,-84.7114,"Misc",NA
260192,"BUCKHORN LAKE - DAM",NA,"KY",15.24,NA,"www.lakebrowser.com",545.94089648,"DrainageLk","manual",37.3383,-83.4711,"Misc",NA
259636,"DEWEY LAKE - DAM",NA,"KY",12.192,NA,"www.lakebrowser.com",330.455474327,"DrainageLk","manual",37.7358,-82.7272,"Misc",NA
259604,"FISHTRAP LAKE - DAM",NA,"KY",25.6032,NA,"www.lakebrowser.com",420.046107014,"Drainage","manual",37.432791,-82.416427,"Misc",NA
259619,"PAINTSVILLE LAKE - DAM",NA,"KY",30.48,NA,"www.lakelubbers.com",184.559475997,"Drainage","manual",37.84137,-82.871777,"Misc",NA
259620,"YATESVILLE LAKE - DAM",NA,"KY",18.288,NA,"www.lakebrowser.com",759.056410956,"DrainageLk","manual",38.125095,-82.697304,"Misc",NA
259932,"GRAYSON LAKE - DAM",NA,"KY",18.288,NA,"www.lakebrowser.com",492.710714534,"Drainage","manual",38.252187,-82.985132,"Misc",NA
261513,"Spa Lake",NA,"KY",9.7536,NA,"app.fw.ky.gov",88.8711202203,"Drainage","manual",36.94924,-87.02966,"Government",NA
270031,"Martins Fork Reservoir",NA,"KY",13.716,NA,"en.wikipedia.org",127.889942171,"DrainageLk","manual",36.745,-83.2664,"Misc",NA
409262,"LAKE BUHLOW (SITE 2) @ PINEVILLE, LA",NA,"LA",2.7432,1.524,"www.alexandria-louisiana.com",82.6771310762,"Drainage","manual",31.3376817,-92.4415261,"Misc",NA
406898,"LAKE BUHLOW (SITE 1) @ PINEVILLE, LA",NA,"LA",2.7432,1.524,"www.alexandria-louisiana.com",1.25331494848,"Headwater","manual",31.3407372,-92.4373593,"Misc",NA
294401,"LAKE PROVIDENCE NORTH OF LAKE PROVIDENCE, LA.",NA,"LA",11.2776,3.6576,"www.wlf.louisiana.gov",586.213459326,"DrainageLk","manual",32.8459619,-91.2237216,"Government",NA
300854,"RACCOURCI LK (OLD RIVER) NR BATCHELOR, LA",NA,"LA",22.86,5.97408,"la.water.usgs.gov",888.295274339,"DrainageLk","manual",30.8382373,-91.5628939,"Government",NA
305677,"COCODRIE LK NR CLEARWATER, LA",NA,"LA",18.288,1.8288,"www.wlf.louisiana.gov",46.0950334491,"DrainageLk","manual",30.9593583,-92.4548573,"Government",NA
302945,"LK CHICOT @ DAM NR ST. LANDRY, LA",NA,"LA",4.8768,2.1336,"www.wlf.louisiana.gov",469.213826753,"DrainageLk","manual",30.8185283,-92.269294,"Government",NA
310423,"LK PALOURDE @ MORGAN CITY, LA",NA,"LA",2.7,1.8,"en.wikipedia.org",4374.59524893,"DrainageLk","manual",29.7171519,-91.1826025,"Misc",NA
308752,"LK SALVADOR, CENTER, NR BARATARIA, LA",NA,"LA",NA,1.8,"en.wikipedia.org",20221.0688979,"DrainageLk","manual",29.7241,-90.2542444,"Misc",NA
309604,"GRASSY LK @ CENTER NR AMELIA, LA",NA,"LA",2.7,1.8,"en.wikipedia.org",502.39606383,"DrainageLk","manual",29.7782615,-91.1089896,"Misc",NA
308747,"LK VERRET NR GEORGIA, LA",NA,"LA",2.7,1.8,"en.wikipedia.org",6101.34905323,"DrainageLk","manual",29.8418712,-91.0989895,"Misc",NA
306564,"GRAND LK @ BLUE POINT NR VERDUNVILLE, LA",NA,"LA",NA,1.3716,"pubs.usgs.gov",63.9323365198,"DrainageLk","manual",29.8677042,-91.3703859,"Government",NA
299391,"L. PONT. @ PUMP STN NO. 1, NR. METAIRIE (SITE 4A1)",NA,"LA",20,4.3,"en.wikipedia.org",165032.180226,"DrainageLk","manual",30.0204802,-90.1453519,"Misc",NA
300567,"LK MAUREPAS, IN MIDDLE, NR MANCHAC, LA",NA,"LA",NA,3.6576,"www.wlf.louisiana.gov",23596.5734725,"DrainageLk","manual",30.2501969,-90.5000873,"Government",NA
303906,"LK HENDERSON NR HENDERSON, LA",NA,"LA",15.24,2.1336,"www.wlf.louisiana.gov",1887.09172359,"DrainageLk","manual",30.3240857,-91.7565028,"Government",NA
299796,"COLLEGE LK @ OUTFLOW @ BATON ROUGE, LA",NA,"LA",NA,1.2192,"www.wlf.louisiana.gov",1.83334000829,"Isolated","manual",30.4071361,-91.1692734,"Government",NA
299484,"CAMPUS LK @ OUTFLOW @ BATON ROUGE, LA",NA,"LA",NA,0.4572,"www.wlf.louisiana.gov",2.94368822839,"Isolated","manual",30.4088028,-91.1712179,"Government",NA
299493,"LK ERIE @ OUTFLOW @ BATON ROUGE, LA",NA,"LA",NA,0.6096,"www.wlf.louisiana.gov",1.38131656191,"Isolated","manual",30.4232469,-91.16344,"Government",NA
300659,"Capitol Lake @ I-110",NA,"LA",2.4384,0.3048,"www1.deq.louisiana.gov",19.3684801275,"Drainage","manual",30.4599127,-91.1848296,"Government",NA
298805,"False River South of New Roads, LA",NA,"LA",19.812,6.4008,"www.wlf.louisiana.gov",1269.05202033,"DrainageLk","manual",30.6085219,-91.4262223,"Government",NA
305676,"LAKE KINCAID NEAR ALEXANDRIA, LA",NA,"LA",NA,3.93192,"la.water.usgs.gov",723.798712228,"DrainageLk","manual",31.2821264,-92.6151432,"Government",NA
292667,"CATAHOULA LK NR ROGERS, LA",NA,"LA",2.286,NA,"fishing-app.gpsnauticalcharts.com",6688.28444894,"DrainageLk","manual",31.4710112,-92.1556867,"Misc",NA
290712,"LK ST. JOHN S NR WATERPROOF, LA",NA,"LA",8.5344,3.6576,"www.wlf.louisiana.gov",860.736891557,"DrainageLk","manual",31.7334975,-91.4445618,"Government",NA
409271,"Sibley Lake west branch about 0.5 miles east of br",NA,"LA",5.4864,2.1336,"www.wlf.louisiana.gov",741.336473531,"Drainage","manual",31.7494444,-93.1475,"Government",NA
405750,"Grand Bayou Reservoir about 0.25 miles NW of spill",NA,"LA",8.9916,3.048,"www.wlf.louisiana.gov",1036.08960564,"DrainageLk","manual",32.0016667,-93.2161111,"Government",NA
295146,"LK ST. JOSEPH SE NR NEWELLTON, LA",NA,"LA",1.8288,0.762,"www.wlf.louisiana.gov",540.764835203,"DrainageLk","manual",32.0248784,-91.190389,"Government",NA
290705,"Caney Creek Reservoir about 850 ft west of spillwa",NA,"LA",13.1064,4.8768,"www.wlf.louisiana.gov",1917.2515396,"Drainage","manual",32.2244444,-92.4922222,"Government",NA
405479,"SMITHPORT LK @ DAM NR MANSFIELD, LA",NA,"LA",4.93776,NA,"la.water.usgs.gov",7.44345949631,"DrainageLk","manual",32.1162717,-93.566011,"Government",NA
408137,"IATT LK NR COLFAX, LA",NA,"LA",5.7912,1.3716,"www.wlf.louisiana.gov",2672.08427446,"Drainage","manual",31.5493401,-92.6543139,"Government",NA
293293,"Lake Claiborne near Aycock, LA",NA,"LA",10.668,4.81584,"www.wlf.louisiana.gov",2336.65446955,"DrainageLk","manual",32.7408333,-92.9030556,"Government",NA
294916,"TURKEY CK LK NR EXTENSION, LA",NA,"LA",6.7056,2.4384,"www.wlf.louisiana.gov",2029.5483446,"DrainageLk","manual",31.929327,-91.7679053,"Government",NA
299797,"UNIVERSITY LK @ OUTFLOW @ BATON ROUGE, LA",NA,"LA",1.6764,0.64008,"www.wlf.louisiana.gov",79.1973942862,"Drainage","manual",30.4079694,-91.164551,"Government",NA
299798,"LK CREST @ OUTFLOW @ BATON ROUGE, LA",NA,"LA",NA,1.2192,"www.wlf.louisiana.gov",3.56292966369,"Headwater","manual",30.4221358,-91.169829,"Government",NA
4056,"Monocle Lake",NA,"MI",16.764,NA,"www.michigan.gov",69.4319650795,"DrainageLk","manual",46.471074,-84.642513,"Government",NA
98902,"Spectacle Lake",NA,"MI",1.2192,NA,"fishing-app.gpsnauticalcharts.com",32.9725766881,"Drainage","manual",46.460747,-84.630318,"Misc",NA
287040,"MOON LAKE",NA,"MS",8.5344,NA,"www.mdwfp.com",1016.03502804,"DrainageLk","manual",34.41933333,-90.50988889,"Misc",NA
252717,"OKATIBBEE RESERVOIR",NA,"MS",9.144,NA,"www.lakebrowser.com",1523.43370173,"DrainageLk","manual",32.47802778,-88.79816667,"Misc",NA
247439,"BAY SPRINGS LAKE (TTW)",NA,"MS",21.336,NA,"navionics",2590.48404591,"DrainageLk","manual",34.52525,-88.32386111,"Misc",NA
288235,"GRENADA RESERVOIR",NA,"MS",15.24,NA,"navionics",7974.58673695,"DrainageLk","manual",33.81644444,-89.61302778,"Misc",NA
256380,"LAKE COLUMBIA",NA,"MS",5.4864,NA,"www.mdwfp.com",19.3328901981,"Isolated","manual",31.18480556,-89.73855556,"Misc",NA
286447,"LAKE WASHINGTON",NA,"MS",6.4008,NA,"www.mdwfp.com",1250.30620616,"DrainageLk","manual",33.10066667,-91.07569444,"Misc",NA
288233,"BEE LAKE",NA,"MS",NA,1.6764,"www.mdwfp.com",565.89596523,"DrainageLk","manual",33.0555,-90.32730556,"Misc",NA
248783,"CHOCTAW LAKE",NA,"MS",4.8768,NA,"www.mdwfp.com",36.8932509092,"Drainage","manual",33.27211111,-89.14038889,"Misc",NA
247438,"LAKE LAMAR BRUCE",NA,"MS",8.5344,NA,"www.mdwfp.com",128.030129996,"Isolated","manual",34.38719444,-88.66888889,"Misc",NA
248286,"LAKE MONROE",NA,"MS",6.7056,NA,"www.mdwfp.com",42.789882155,"Isolated","manual",33.94188889,-88.56769444,"Misc",NA
279354,"HORN LAKE",NA,"MS",8.2296,3.048,"www.lakelubbers.com",432.11295435,"Headwater","manual",34.97672222,-90.15911111,"Misc",NA
285754,"CHEWALLA LAKE",NA,"MS",3.6576,NA,"www.mdwfp.com",91.3392822717,"Drainage","manual",34.72475,-89.33925,"Misc",NA
288128,"SPRING LAKE",NA,"MS",3.048,NA,"www.mdwfp.com",16.0269944576,"Drainage","manual",34.66377778,-89.46744444,"Misc",NA
250882,"LAKE MIKE CONNOR",NA,"MS",7.3152,NA,"www.mdwfp.com",32.4896773796,"Drainage","manual",31.57244444,-89.64936111,"Misc",NA
256415,"SHADOW LAKE (ROOSEVELT ST PK)",NA,"MS",9.7536,NA,"www.mdwfp.com",46.3596154945,"Drainage","manual",32.31469444,-89.68413889,"Misc",NA
245599,"LAKE TOM BAILEY",NA,"MS",6.4008,NA,"www.mdwfp.com",72.9109541787,"Drainage","manual",32.42122222,-88.51711111,"Misc",NA
244090,"DAVIS LAKE",NA,"MS",8.2296,NA,"www.mdwfp.com",75.7531226339,"Drainage","manual",34.04636111,-88.93394444,"Misc",NA
244088,"OKTIBBEHA COUNTY LAKE",NA,"MS",6.096,NA,"www.gpsnauticalcharts.com",180.1221227,"DrainageLk","manual",33.50552778,-88.93377778,"Misc",NA
244884,"TOMBIGBEE STATE PARK LAKE",NA,"MS",9.144,NA,"www.mdwfp.com",24.9375266629,"Isolated","manual",34.23258333,-88.62911111,"Misc",NA
300246,"LAKE TANGIPAHOA (PERCY QUIN STATE PARK)",NA,"MS",6.096,NA,"www.mdwfp.com",180.067589836,"Headwater","manual",31.17636111,-90.52875,"Misc",NA
251680,"LONG CREEK RESERVOIR",NA,"MS",5.1816,NA,"www.ms-sportsman.com",100.06645685,"Drainage","manual",32.32533333,-88.62191667,"Misc",NA
256341,"JEFFERSON DAVIS LAKE",NA,"MS",9.144,NA,"www.mdwfp.com",43.02007358,"Isolated","manual",31.56633333,-89.84036111,"Misc",NA
254509,"LAKE LINCOLN",NA,"MS",9.144,NA,"www.mdwfp.com",172.988313471,"Drainage","manual",31.67888889,-90.32794444,"Misc",NA
285226,"LAKE WHITTINGTON",NA,"MS",17.9832,NA,"images.library.wisc.edu",842.110744961,"DrainageLk","manual",33.66513889,-91.11333333,"University",NA
252234,"LAKE BOGUE HOM0",NA,"MS",5.4864,NA,"www.mdwfp.com",416.181604304,"Drainage","manual",31.70597222,-89.01944444,"Misc",NA
298688,"LAKE LORMAN",NA,"MS",6.096,NA,"www.gpsnauticalcharts.com",68.2745482122,"Isolated","manual",32.48116667,-90.23883333,"Misc",NA
255758,"ROSS BARNETT RESERVOIR",NA,"MS",18.288,3.6576,"en.wikipedia.org",10258.3276059,"DrainageLk","manual",32.39027778,-90.05083333,"Misc",NA
296009,"NATCHEZ STATE PARK LAKE",NA,"MS",13.4112,NA,"www.mdwfp.com",42.1457690761,"Drainage","manual",31.59597222,-91.20594444,"Misc",NA
250550,"GEIGER LAKE (PAUL B JOHNSON STATE PARK)",NA,"MS",5.4864,NA,"www.mdwfp.com",106.284762286,"Drainage","manual",31.13563889,-89.23908333,"Misc",NA
244746,"LAKE PIOMINGO (ELVIS PRESLEY LAKE)",NA,"MS",10.668,NA,"www.mdwfp.com",131.236364239,"Isolated","manual",34.296,-88.65894444,"Misc",NA
244046,"KEMPER COUNTY LAKE",NA,"MS",10.9728,NA,"www.mdwfp.com",236.458269051,"Drainage","manual",32.81055556,-88.71666667,"Misc",NA
284015,"EAGLE LAKE",NA,"MS",8.2296,NA,"www.mdwfp.com",1911.95413161,"Headwater","manual",32.51480556,-91.06063889,"Misc",NA
246792,"ABERDEEN LAKE (TTW)",NA,"MS",4.572,2.7432,"www.lakelubbers.com",1212.19013882,"DrainageLk","manual",33.83519444,-88.52011111,"Misc",NA
283196,"DESOTO LAKE",NA,"MS",7.9248,NA,"www.desototimes.com",420.039393845,"DrainageLk","manual",34.16063889,-90.80669444,"Misc",NA
280626,"LAKE BEULAH",NA,"MS",9.144,NA,"www.mdwfp.com",396.685169597,"DrainageLk","manual",33.7645,-91.01736111,"Misc",NA
284017,"LAKE BOLIVAR",NA,"MS",2.01168,NA,"images.library.wisc.edu",255.826208751,"Headwater","manual",33.61125,-91.06688889,"University",NA
248116,"COLUMBUS LAKE (TTW)",NA,"MS",9.144,NA,"www.ms-sportsman.com",1018.23274395,"DrainageLk","manual",33.52344444,-88.48711111,"Misc",NA
254883,"NESHOBA COUNTY LAKE",NA,"MS",4.2672,NA,"www.mdwfp.com",56.0542748811,"Drainage","manual",32.70822222,-89.01077778,"Misc",NA
280200,"TIPPAH COUNTY LAKE",NA,"MS",9.144,NA,"www.mdwfp.com",59.1450775379,"Headwater","manual",34.79366667,-88.95044444,"Misc",NA
253635,"ANCHOR LAKE",NA,"MS",7.3152,NA,"www.pearlrivercounty.net",102.486816985,"Drainage","manual",30.6255,-89.602,"Misc",NA
253689,"LAKE MARY CRAWFORD",NA,"MS",4.572,NA,"www.mdwfp.com",57.5664317276,"Isolated","manual",31.57466667,-90.15438889,"Misc",NA
283197,"FLOWER LAKE",NA,"MS",6.4008,NA,"www.gpsnauticalcharts.com",160.181085008,"Isolated","manual",34.60002778,-90.51255556,"Misc",NA
287043,"LOWER LAKE",NA,"MS",7.0104,NA,"navionics",123.617673853,"Headwater","manual",34.40672222,-89.80883333,"Misc",NA
287738,"CONSERVATION LEAGUE LAKE (LAKE CHARLIE CAPPS)",NA,"MS",4.572,NA,"www.mdwfp.com",99.4861014677,"Isolated","manual",33.87194444,-90.95333333,"Misc",NA
247062,"LAKE LOWNDES STATE PARK",NA,"MS",10.0584,NA,"www.mdwfp.com",57.5209117945,"Headwater","manual",33.42455556,-88.30186111,"Misc",NA
254047,"CRYSTAL LAKE",NA,"MS",3.6576,NA,"www.mdwfp.com",62.9550368026,"Drainage","manual",32.29005556,-90.159,"Misc",NA
253659,"LAKE DOCKERY",NA,"MS",4.8768,NA,"www.mdwfp.com",19.949798716,"Isolated","manual",32.19855556,-90.26322222,"Misc",NA
287039,"ENID LAKE",NA,"MS",16.1544,NA,"navionics",5932.83641947,"DrainageLk","manual",34.14772222,-89.89097222,"Misc",NA
249951,"LITTLE BLACK CREEK RESERVOIR",NA,"MS",4.8768,NA,"navionics",220.897518839,"Drainage","manual",31.08544444,-89.48675,"Misc",NA
250312,"TURKEY FORK RESERVOIR",NA,"MS",4.8768,NA,"www.mdwfp.com",100.671705453,"DrainageLk","manual",31.33677778,-88.69888889,"Misc",NA
458636,"Echo Lake at mid-lake",NA,"MT",7.3152,NA,"webapp.navionics.com",41.5475074909,"Headwater","manual",46.2325,-113.261389,"Misc",NA
458998,"Lake Alva at mid-lake",NA,"MT",27.1272,NA,"webapp.navionics.com",120.628150086,"DrainageLk","manual",47.316389,-113.582778,"Misc",NA
459806,"Browns Lake at mid-lake",NA,"MT",8.2296,NA,"fwp.mt.gov",209.325730453,"Drainage","manual",46.953889,-113.009167,"Government",NA
460508,"Coopers Lake at mid-lake",NA,"MT",21.336,NA,"myfwp.mt.gov",81.1204497958,"Drainage","manual",47.08119,-112.91603,"Government",NA
459000,"Lake Inez at mid-lake",NA,"MT",21.9456,NA,"myfwp.mt.gov",116.73951955,"DrainageLk","manual",47.286667,-113.5675,"Government",NA
457888,"Lake Marshall at mid-lake",NA,"MT",16.764,NA,"webapp.navionics.com",32.3110122598,"Drainage","manual",47.28826,-113.64991,"Misc",NA
459838,"Placid Lake at mid-lake",NA,"MT",28.3464,NA,"myfwp.mt.gov",490.998850385,"Drainage","manual",47.1175,-113.521111,"Government",NA
457602,"Seeley Lake at mid-lake",NA,"MT",36.576,NA,"myfwp.mt.gov",418.219849424,"DrainageLk","manual",47.183056,-113.499444,"Government",NA
458280,"Upsata Lake at mid-lake",NA,"MT",12.192,NA,"myfwp.mt.gov",36.783799739,"Isolated","manual",47.079167,-113.219444,"Government",NA
459210,"Upper Twin Lake at mid-lake",NA,"MT",7.62,NA,"webapp.navionics.com",10.1983556245,"Headwater","manual",46.161944,-114.499167,"Misc",NA
459072,"Hungry Horse Reservoir near dam",NA,"MT",149.352,NA,"pubs.usgs.gov",9548.82984721,"DrainageLk","manual",48.3381,-114.0058,"Government",NA
458861,"Blanchard Lake at mid-lake",NA,"MT",9.144,NA,"myfwp.mt.gov",52.0377154209,"Isolated","manual",48.3792,-114.3646,"Government",NA
459603,"Fish Lake at mid-lake",NA,"MT",7.0104,NA,"myfwp.mt.gov",12.9462436734,"Isolated","manual",48.6763,-114.7245,"Government",NA
459068,"Lower Stillwater Lake at mid-lake",NA,"MT",16.1544,NA,"www.nwmtlvmn.org",101.216546519,"DrainageLk","manual",48.52599,-114.56427,"Misc",NA
459833,"Tally Lake at mid-lake",NA,"MT",135.636,NA,"www.fs.usda.gov",490.444175209,"Drainage","manual",48.4146,-114.5605,"Government",NA
457598,"Upper Stillwater Lake at mid-lake",NA,"MT",22.86,NA,"www.nwmtlvmn.org",239.815523957,"DrainageLk","manual",48.5908,-114.63924,"Misc",NA
459754,"Holland Lake",NA,"MT",42.672,NA,"myfwp.mt.gov",167.533612066,"DrainageLk","manual",47.4477,-113.6024,"Government",NA
458326,"Lindberg Lake",NA,"MT",36.576,NA,"myfwp.mt.gov",330.439942054,"DrainageLk","manual",47.3747,-113.7391,"Government",NA
459069,"Swan Lake in northern basin of lake",NA,"MT",36.576,NA,"myfwp.mt.gov",1324.7918438,"DrainageLk","manual",47.9911,-113.9353,"Government",NA
457982,"Flathead Lake near Flathead River inflow",NA,"MT",115.824,NA,"myfwp.mt.gov",49473.4196156,"DrainageLk","manual",48.0558,-114.1298,"Government",NA
458317,"Noxon Reservoir at forbay of dam",NA,"MT",47.5488,NA,"webapp.navionics.com",3177.33693104,"DrainageLk","manual",47.9586,-115.7309,"Misc",NA
459448,"Dickey Lake at mid-lake",NA,"MT",21.336,NA,"myfwp.mt.gov",236.851967844,"Drainage","manual",48.71197,-114.81749,"Government",NA
459575,"Frank Lake at mid-lake",NA,"MT",12.192,NA,"myfwp.mt.gov",56.1885136971,"Isolated","manual",48.7962,-115.0005,"Government",NA
460303,"Glen Lake at mid-lake",NA,"MT",9.144,NA,"myfwp.mt.gov",121.861173658,"Drainage","manual",48.86236,-114.94612,"Government",NA
459962,"Murphy Lake at mid-lake",NA,"MT",7.62,NA,"myfwp.mt.gov",57.0855958334,"DrainageLk","manual",48.73537,-114.85915,"Government",NA
459066,"Spar Lake at mid-lake",NA,"MT",60.96,NA,"myfwp.mt.gov",156.746233536,"DrainageLk","manual",48.26378,-115.94639,"Government",NA
459572,"Tetrault Lake at mid-lake",NA,"MT",15.24,NA,"myfwp.mt.gov",39.6195759103,"Isolated","manual",48.9457,-115.1158,"Government",NA
459181,"Island Lake at mid-lake",NA,"MT",15.24,NA,"myfwp.mt.gov",85.4124934775,"Drainage","manual",48.2378,-114.9706,"Government",NA
317313,"Elk Lake at mid-lake",NA,"MT",17.9832,NA,"myfwp.mt.gov",114.556389006,"Drainage","manual",44.6836,-111.61251,"Government",NA
317336,"Lake Agnes",NA,"MT",17.9832,NA,"myfwp.mt.gov",43.9631171806,"Drainage","manual",45.514722,-112.838611,"Government",NA
317646,"Brownes Lake at mid-lake",NA,"MT",7.9248,NA,"fwp.mt.gov",14.7983663819,"DrainageLk","manual",45.527222,-112.821389,"Government",NA
317333,"Deerhead Lake at mid-lake",NA,"MT",3.3528,NA,"myfwp.mt.gov",8.33765344384,"Drainage","manual",45.437,-112.9146,"Government",NA
317555,"Lily Lake at mid-lake",NA,"MT",10.0584,NA,"myfwp.mt.gov",5.46723708181,"Headwater","manual",45.6249,-113.3285,"Government",NA
317228,"Lower Miner Lakes at mid-lake",NA,"MT",9.144,NA,"myfwp.mt.gov",27.1599982881,"DrainageLk","manual",45.322222,-113.574444,"Government",NA
317147,"Mussigbrod Lake at mid-lake",NA,"MT",20.1168,NA,"myfwp.mt.gov",42.508978074,"Drainage","manual",45.7942,-113.6165,"Government",NA
317152,"Sand Lake at mid-lake",NA,"MT",16.764,NA,"myfwp.mt.gov",15.7266544166,"Drainage","manual",45.6218,-113.2842,"Government",NA
317230,"Skinner Lake at mid-lake",NA,"MT",1.524,NA,"myfwp.mt.gov",1.9911526048,"Drainage","manual",45.174444,-113.5125,"Government",NA
317541,"Twin Lakes at mid-lake",NA,"MT",14.0208,NA,"myfwp.mt.gov",34.2856475424,"Drainage","manual",45.411944,-113.693611,"Government",NA
317744,"Jackson Lake at mid-lake",NA,"MT",9.144,NA,"myfwp.mt.gov",1.66442289835,"Isolated","manual",45.58129,-112.10113,"Government",NA
317312,"Ruby River Reservoir",NA,"MT",8.5344,NA,"webapp.navionics.com",384.135111833,"Drainage","manual",45.2241,-112.1239,"Misc",NA
317385,"Ennis Lake near Madison River inflow",NA,"MT",6.096,NA,"webapp.navionics.com",1520.71178149,"DrainageLk","manual",45.41795,-111.69268,"Misc",NA
317773,"Hidden Lake at mid-lake",NA,"MT",21.9456,NA,"myfwp.mt.gov",59.807740552,"Isolated","manual",44.71817,-111.59657,"Government",NA
317812,"Canyon Ferry Lake near dam",NA,"MT",53.34,NA,"myfwp.mt.gov",13277.6500026,"DrainageLk","manual",46.64362,-111.71651,"Government",NA
318602,"Hauser Lake below Canyon Ferry Dam",NA,"MT",19.812,NA,"myfwp.mt.gov",1291.31575338,"DrainageLk","manual",46.65145,-111.73193,"Government",NA
319013,"Lake Helena center deep",NA,"MT",2.4384,NA,"myfwp.mt.gov",841.34822161,"DrainageLk","manual",46.696722,-111.92855,"Government",NA
318223,"Gibson Reservoir",NA,"MT",48.768,NA,"myfwp.mt.gov",522.206760429,"Drainage","manual",47.6015,-112.7665,"Government",NA
319289,"Split Rock Lake at mid-lake",NA,"MT",3.3528,NA,"myfwp.mt.gov",69.0800769382,"Drainage","manual",47.6634,-112.5201,"Government",NA
318603,"Lake Frances",NA,"MT",13.1064,NA,"myfwp.mt.gov",2125.28529675,"DrainageLk","manual",48.2846,-112.2667,"Government",NA
319014,"Tiber Reservoir at mid-lake",NA,"MT",42.672,NA,"myfwp.mt.gov",5281.48422957,"DrainageLk","manual",48.3465,-111.2126,"Government",NA
319737,"Ackley Lake at mid-lake",NA,"MT",11.8872,NA,"myfwp.mt.gov",92.7403907899,"Headwater","manual",46.9537,-109.9397,"Government",NA
319761,"Crystal Lake at mid-lake",NA,"MT",3.048,NA,"myfwp.mt.gov",18.5050296551,"Isolated","manual",46.8,-109.5143,"Government",NA
320269,"Fort Peck Lake at Pine Creek boat ramp",NA,"MT",67.056,NA,"fwp.mt.gov",94411.6081926,"DrainageLk","manual",47.83313,-106.65169,"Government",NA
323193,"Fresno Reservoir at mid-lake",NA,"MT",15.24,NA,"webapp.navionics.com",2026.15070635,"DrainageLk","manual",48.6629,-109.9847,"Misc",NA
317089,"Redrock Lake at mid-lake",NA,"MT",6.096,NA,"myfwp.mt.gov",10.8218398211,"DrainageLk","manual",48.79653,-113.70673,"Government",NA
325034,"East Rosebud Lake at mid-lake",NA,"MT",6.096,NA,"fwp.mt.gov",56.291855594,"DrainageLk","manual",45.195556,-109.642778,"Government",NA
326077,"Big Moose Lake at mid-lake",NA,"MT",14.0208,NA,"fwp.mt.gov",33.0329778811,"DrainageLk","manual",45.0046,-109.7662,"Government",NA
325831,"Lower Basin Creek Lake at shoreline",NA,"MT",6.4008,NA,"fwp.mt.gov",1.31070869984,"Drainage","manual",45.15045,-109.41188,"Government",NA
325463,"Rock Island Lake at mid-lake",NA,"MT",33.528,NA,"fwp.mt.gov",63.5470814745,"Isolated","manual",45.01807,-109.8105,"Government",NA
328600,"Tongue River Reservoir South end",NA,"MT",16.4592,NA,"webapp.navionics.com",873.505071525,"DrainageLk","manual",45.0701,-106.7996,"Misc",NA
317140,"HEBGEN LAKE",NA,"MT",21.336,NA,"fwp.mt.gov",5020.94126622,"DrainageLk","manual",44.795556,-111.206667,"Government",NA
325227,"GLASSTON LAKE",NA,"MT",12.192,NA,"webapp.navionics.com",211.411923908,"DrainageLk","manual",46.016389,-109.825,"Misc",NA
459829,"COMO LAKE",NA,"MT",28.3464,NA,"webapp.navionics.com",368.859437179,"DrainageLk","manual",46.065556,-114.241667,"Misc",NA
329171,"BAKER LAKE",NA,"MT",3.6576,NA,"fwp.mt.gov",36.7443706259,"Isolated","manual",46.358889,-104.265278,"Government",NA
457979,"CABINET GORGE RESERVOIR",NA,"MT",14.9352,NA,"webapp.navionics.com",1128.6791206,"DrainageLk","manual",48.023333,-115.847222,"Misc",NA
458318,"LOON LAKE",NA,"MT",34.7472,NA,"myfwp.mt.gov",98.1006186423,"DrainageLk","manual",48.084444,-115.192222,"Government",NA
459832,"LITTLE BITTERROOT LAKE",NA,"MT",79.248,NA,"myfwp.mt.gov",1202.85365648,"Drainage","manual",48.106389,-114.703333,"Government",NA
459204,"ROGERS LAKE",NA,"MT",4.572,NA,"myfwp.mt.gov",96.9544361665,"Headwater","manual",48.066667,-114.604167,"Government",NA
459214,"SPENCER LAKE",NA,"MT",5.1816,NA,"fwp.mt.gov",12.3067317385,"DrainageLk","manual",48.397889,-114.416722,"Government",NA
459175,"FRANK LAKE",NA,"MT",12.192,NA,"myfwp.mt.gov",6.38765577656,"Isolated","manual",48.797778,-115.007222,"Government",NA
459177,"ROCK LAKE",NA,"MT",9.144,NA,"myfwp.mt.gov",13.7865378077,"Isolated","manual",48.826667,-115.007222,"Government",NA
316920,"DUCK LAKE",NA,"MT",15.24,NA,"webapp.navionics.com",586.343325742,"Isolated","manual",48.859722,-113.341667,"Misc",NA
319317,"SPRING MEADOW LAKE",NA,"MT",9.4488,NA,"fwp.mt.gov",5.77139200933,"Isolated","manual",46.609722,-112.077222,"Government",NA
460464,"SEELEY LAKE",NA,"MT",36.576,NA,"myfwp.mt.gov",2.11317514143,"Isolated","manual",47.189167,-113.49,"Government",NA
