"llid","name","legacy_name","state","max_depth_m","mean_depth_m","source","lake_waterarea_ha","lake_connectivity_permanent","effort","lat","long"
274265,"TNRL-1",NA,"AL",17.3736,4.8768,"https://www.lakelubbers.com/wheeler-lake-236/",21190.5786519,"DrainageLk","manual",34.762564,-87.243619
248780,"INLB-1",NA,"AL",44.196,23.4696,"https://www.outdooralabama.com/resovoirs/inland-lake",562.425417787,"DrainageLk","manual",33.834688,-86.550942
251755,"BCLM-2",NA,"AL",15.24,4.572,"https://www.lakelubbers.com/big-creek-lake-696/",1339.23634013,"DrainageLk","manual",30.740052,-88.335142
274535,"CEDF-2",NA,"AL",24.384,4.572,"https://www.lakelubbers.com/cedar-creek-reservoir-688/",1644.27213301,"DrainageLk","manual",34.544028,-87.973694
244056,"TUST-3",NA,"AL",28.0416,6.7056,"https://www.lakelubbers.com/lake-tuscaloosa-691/",2053.97783258,"DrainageLk","manual",33.34054,-87.560421
248121,"OLIT-2",NA,"AL",39.3192,4.8768,"https://www.lakelubbers.com/oliver-lake-781/",268.274168015,"DrainageLk","manual",33.242573,-87.504276
274672,"LBRF-2",NA,"AL",25.6032,4.8768,"https://www.lakelubbers.com/little-bear-creek-reservoir-686/",586.076213125,"Drainage","manual",34.451933,-87.973222
273808,"TENR-350",NA,"AL",18.288,4.572,"http://www.encyclopediaofalabama.org/article/h-2621",26552.3917888,"DrainageLk","manual",34.423778,-86.374472
274102,"UBAM-1",NA,"AL",21.336,4.2672,"https://www.lakelubbers.com/upper-bear-creek-reservoir-687/",638.150197492,"Drainage","manual",34.273306,-87.692167
241074,"NEES-11",NA,"AL",18.8976,3.048,"https://www.lakelubbers.com/weiss-lake-685/",832.735125569,"DrainageLk","manual",34.1301,-85.7945
244048,"COFC-3",NA,"AL",7.62,NA,"http://www.lakebrowser.com/alabama/coffeeville_lake.asp",2614.09993861,"DrainageLk","manual",32.292368,-87.937967
225407,"GEOH-25",NA,"AL",30,5,"https://en.wikipedia.org/wiki/Walter_F._George_Lake",14131.1921477,"DrainageLk","manual",31.835931,-85.142004
274861,"TURL-1",NA,"AL",4.6,1.5,"http://fishing-app.gpsnauticalcharts.com/i-boating-fishing-web-app/fishing-marine-charts-navigation.html?title=Moulton+City+Lake+boating+app#14/34.5500/-87.2650",29.4578705974,"Drainage","manual",34.545538,-87.270626
246795,"CTMC-1",NA,"AL",25,0.6,"http://fishing-app.gpsnauticalcharts.com/i-boating-fishing-web-app/fishing-marine-charts-navigation.html?title=Lake+Catoma+boating+app#15/34.2254/-86.8026",213.370227058,"Drainage","manual",34.18617,-86.80415
454129,"LAKE HAVASU - MID THOMPSON BAY",NA,"AZ",27.432,10.668,"https://en.wikipedia.org/wiki/Lake_Havasu",7473.30131295,"DrainageLk","manual",34.3007783,-114.1376314
454647,"KENNEDY LAKE - AT DAM",NA,"AZ",3.6576,2.4384,"https://en.wikipedia.org/wiki/Kennedy_Lake_(Arizona)",3.92864815445,"Isolated","manual",32.180215,-111.0081717
454987,"LAKE PLEASANT - MID LAKE",NA,"AZ",89.3064,NA,"http://fishing-app.gpsnauticalcharts.com/i-boating-fishing-web-app/fishing-marine-charts-navigation.html#19/33.85295/-112.26803",3717.30106945,"DrainageLk","manual",33.9061111,-112.2427778
454654,"PARKER CANYON LAKE - AT DAM",NA,"AZ",18.288,12.192,"https://en.wikipedia.org/wiki/Parker_Canyon_Lake",42.6196672692,"Isolated","manual",31.4277778,-110.4563889
454977,"LYNX LAKE - AT DAM",NA,"AZ",NA,12.192,"https://en.wikipedia.org/wiki/Lynx_Lake_(Arizona)",20.0934195874,"Isolated","manual",34.5216667,-112.3866667
453872,"RAINBOW LAKE - AT DAM",NA,"AZ",NA,1.8288,"https://en.wikipedia.org/wiki/Rainbow_Lake_(Arizona)",51.7976949466,"Drainage","manual",34.1538889,-109.9838889
453711,"CATARACT LAKE - AT DAM",NA,"AZ",NA,3.6576,"https://en.wikipedia.org/wiki/Cataract_Lake_(Arizona)",15.1599376236,"Isolated","manual",35.2516667,-112.2155556
453861,"WOODS CANYON LAKE - AT DAM",NA,"AZ",12.192,7.62,"https://www.fws.gov/southwest/federal_assistance/PDFs/Chapter%206b%20Middle%20Little%20Colorado%20River%20Sub-Watershed.pdf",22.3374625561,"Isolated","manual",34.3344444,-110.9369444
453970,"WILLOW SPRINGS LAKE - AT DAM",NA,"AZ",NA,18.288,"https://en.wikipedia.org/wiki/Willow_Springs_Lake",58.6485072265,"Isolated","manual",34.3158333,-110.8763889
453937,"MORMON LAKE - AT DAM",NA,"AZ",NA,3.048,"https://en.wikipedia.org/wiki/Mormon_Lake",1255.18013039,"Isolated","manual",34.9455556,-111.4413889
453820,"BLACK CANYON LAKE - AT DAM",NA,"AZ",18.288,10.668,"https://www.fws.gov/southwest/federal_assistance/PDFs/Chapter%206b%20Middle%20Little%20Colorado%20River%20Sub-Watershed.pdf",14.6836942302,"Isolated","manual",34.3310833,-110.6984722
454663,"BIG LAKE - AT BOAT DOCK",NA,"AZ",NA,4.8768,"https://en.wikipedia.org/wiki/Big_Lake_(Arizona)",223.058721857,"DrainageLk","manual",33.8752778,-109.4233333
454163,"LAKE MOHAVE - ELDORADO CANYON",NA,"AZ",44.8056,22.86,"https://en.wikipedia.org/wiki/Lake_Mohave
http://fishing-app.gpsnauticalcharts.com/i-boating-fishing-web-app/fishing-marine-charts-navigation.html#9.64/35.6298/-114.5864",11157.6684707,"Drainage","manual",35.7088889,-114.705
454779,"ROOSEVELT LAKE - AT DAM",NA,"AZ",52.4256,NA,"http://fishing-app.gpsnauticalcharts.com/i-boating-fishing-web-app/fishing-marine-charts-navigation.html#14.6/33.6732/-111.1591",3960.88557102,"DrainageLk","manual",33.6769444,-111.1541667
454864,"ROOSEVELT LAKE - TONTO CREEK INLET",NA,"AZ",51.816,NA,"http://fishing-app.gpsnauticalcharts.com/i-boating-fishing-web-app/fishing-marine-charts-navigation.html#12.62/33.7109/-111.1783",1896.90586692,"Headwater","manual",33.7191667,-111.1922222
454839,"PECK'S LAKE - MID LAKE",NA,"AZ",3.048,NA,"https://en.wikipedia.org/wiki/Pecks_Lake",38.0975679964,"Isolated","manual",34.7825,-112.0394
454327,"ROPER LAKE - AT DAM",NA,"AZ",NA,6.096,"https://en.wikipedia.org/wiki/Roper_Lake_State_Park",10.6361475205,"Isolated","manual",32.75674,-109.7044
454603,"RIGGS FLAT LAKE - AT DAM",NA,"AZ",NA,13.716,"https://en.wikipedia.org/wiki/Riggs_Flat_Lake",3.76949297778,"Isolated","manual",32.7075,-109.9656
454468,"ROSE CANYON LAKE - AT DAM",NA,"AZ",NA,13.4112,"https://en.wikipedia.org/wiki/Rose_Canyon_Lake",2.78662918444,"Isolated","manual",32.38722,-110.7111
454669,"JD DAM LAKE - AT BOAT RAMP",NA,"AZ",NA,1.8288,"https://en.wikipedia.org/wiki/J._D._Dam_Lake",11.4712622961,"Isolated","manual",35.06722,-112.0272
454698,"CRESCENT LAKE - MID LAKE",NA,"AZ",NA,4.572,"https://en.wikipedia.org/wiki/Crescent_Lake_(Arizona)",74.7931513398,"Isolated","manual",33.90972,-109.4206
453939,"KINNIKINICK LAKE - AT DAM",NA,"AZ",NA,6.7056,"https://en.wikipedia.org/wiki/Kinnikinick_Lake",49.1049407477,"Isolated","manual",34.89583,-111.2992
453819,"BEAR CANYON LAKE - AT DAM",NA,"AZ",15.24,NA,"https://www.fws.gov/southwest/federal_assistance/PDFs/Chapter%206b%20Middle%20Little%20Colorado%20River%20Sub-Watershed.pdf",21.7633906265,"Headwater","manual",34.40673,-111.0016
454703,"PERKINS LAKE - AT DAM",NA,"AZ",NA,3.048,"https://en.wikipedia.org/wiki/Perkins_Tank",1.51752192189,"Isolated","manual",35.11139,-112.0703
453838,"LEE VALLEY RESERVOIR - AT DAM",NA,"AZ",6.096,3.048,"https://en.wikipedia.org/wiki/Lee_Valley_Lake",17.2791199782,"Headwater","manual",33.94194,-109.4994
454758,"TEMPE TOWN LAKE - USD",NA,"AZ",5.7912,4.8768,"https://en.wikipedia.org/wiki/Tempe_Town_Lake",126.352292896,"DrainageLk","manual",33.43308,-111.9192
454273,"MITTRY LAKE - AT DAM",NA,"AZ",NA,2.4384,"https://en.wikipedia.org/wiki/Mittry_Lake",136.03619874,"Drainage","manual",32.82028,-114.4606
453965,"LAKE MARY (LOWER)  - DAM SITE",NA,"AZ",8.2296,NA,"http://fishing-app.gpsnauticalcharts.com/i-boating-fishing-web-app/fishing-marine-charts-navigation.html#18.01/35.08006/-111.53287",60.2369913893,"Headwater","manual",35.11194,-111.5825
454019,"NELSON RESERVOIR - AT DAM",NA,"AZ",7.3152,4.572,"https://en.wikipedia.org/wiki/Nelson_Reservoir",28.2541621949,"DrainageLk","manual",34.05917,-109.1939
453948,"CARNERO LAKE - AT DEEPEST PART OF LAKE",NA,"AZ",3.048,1.8288,"https://en.wikipedia.org/wiki/Carnero_Lake",28.487648754,"Drainage","manual",34.116,-109.5272
454729,"CANYON LAKE - DAM SITE IN LITTORAL ZONE",NA,"AZ",NA,39.624,"https://en.wikipedia.org/wiki/Canyon_Lake_(Arizona)",183.335430177,"DrainageLk","manual",33.55278,-111.4428
453833,"WOODLAND RESERVOIR - NEAR DAM / GATE",NA,"AZ",6.096,1.2192,"https://en.wikipedia.org/wiki/Woodland_Reservoir_(Arizona)",6.88571063198,"Isolated","manual",34.12681,-109.9529
454731,"GOLDWATER LAKE (UPPER) - DAM SITE",NA,"AZ",NA,3.048,"https://en.wikipedia.org/wiki/Goldwater_Lake",8.62007793084,"Isolated","manual",34.49843,-112.4509
454597,"LAKESIDE LAKE - AT DAM",NA,"AZ",10.668,4.572,"https://www.fws.gov/southwest/federal_assistance/pdfs/chapter%2010%20santa%20cruz%20river%20watershed.pdf",5.6659175782,"Isolated","manual",32.1863183,-110.8173686
454621,"SILVERBELL LAKE -                                 USGS",NA,"AZ",2.1336,1.524,"https://www.fws.gov/southwest/federal_assistance/pdfs/chapter%2010%20santa%20cruz%20river%20watershed.pdf",6.17597228936,"Isolated","manual",32.2847222,-111.0311111
475869,"Lake Natomas at Nimbus Flat -Left",NA,"CA",NA,14,"https://en.wikipedia.org/wiki/Lake_Natoma",212.180016499,"DrainageLk","manual",38.634689,-121.2172394
478722,"Hensley Lake - Andy's Cove",NA,"CA",34,NA,"http://fishing-app.gpsnauticalcharts.com/i-boating-fishing-web-app/fishing-marine-charts-navigation.html?title=Lake+Hensley+boating+app#13/37.1250/-119.8800",576.592316564,"Headwater","manual",37.10817,-119.8697586
483387,"Lake Cahuilla",NA,"CA",91,NA,"https://en.wikipedia.org/wiki/Lake_Cahuilla",55.1810965178,"Drainage","manual",33.62878,-116.2734528
476148,"Clear Lake - Treated-02-CLT-02",NA,"CA",17.9832,6.4008,"http://www.clearlakeguideservice.com/clear-lake-fishing.php",16018.4292564,"DrainageLk","manual",38.999683,-122.6725845
480596,"Soulajule Reservoir-02-S-02",NA,"CA",24.384,NA,"http://marinwater.org/DocumentCenter/View/3384/Soulajule-Final-Study-Plan_09_10_2015?bidId=",19.8783694079,"Drainage","manual",38.147316,-122.7748184
482504,"Castaic Lake",NA,"CA",100.584,NA,"https://www.lakelubbers.com/castaic-lake-951/",903.021378055,"DrainageLk","manual",34.524948,-118.5993805
481789,"Lopez Lake",NA,"CA",38,NA,"http://fishing-app.gpsnauticalcharts.com/i-boating-fishing-web-app/fishing-marine-charts-navigation.html?title=Lake+Lopez+boating+app#14/35.1945/-120.4757",230.11752115,"Drainage","manual",35.197319,-120.4687881
482417,"Elderberry Forebay Site 1",NA,"CA",34,NA,"http://fishing-app.gpsnauticalcharts.com/i-boating-fishing-web-app/fishing-marine-charts-navigation.html?title=Elderberry+Forebay+boating+app#15/34.5647/-118.6358",154.631001789,"DrainageLk","manual",34.564869,-118.6331711
482507,"Big Bear Lake - Eagle Point-02-BBE-02",NA,"CA",22,11,"https://en.wikipedia.org/wiki/Big_Bear_Lake",1090.56271503,"DrainageLk","manual",34.249001,-116.9060974
476851,"Hanning Flat",NA,"CA",22,NA,"http://fishing-app.gpsnauticalcharts.com/i-boating-fishing-web-app/fishing-marine-charts-navigation.html?title=Isabella+Lake+boating+app#13/35.6664/-118.4232",1950.41577936,"DrainageLk","manual",35.666561,-118.3957138
454274,"Ferguson Lake",NA,"CA",5.7,1.8,"http://www.env.gov.bc.ca/omineca/esd/faw/stocking/ferguson/index.html",159.792557287,"DrainageLk","manual",32.972038,-114.4999924
454136,"Taylor Lake",NA,"CA",5,NA,"https://nrm.dfg.ca.gov/FileHandler.ashx?DocumentID=108629",73.4584164556,"Drainage","manual",33.030102,-114.6304016
483164,"Lake Gregory",NA,"CA",13.716,NA,"http://www.mountain-news.com/opinion/letters_to_editor/article_11dd72d6-65ba-11e2-85f6-001a4bcf887a.html",32.9380395319,"Isolated","manual",34.242081,-117.2705612
482152,"Legg Lake",NA,"CA",3.048,0.9144,"https://www.waterboards.ca.gov/losangeles/board_decisions/basin_plan_amendments/technical_documents/2007-010/Staff%20Report_Legg.pdf",11.2597060492,"Headwater","manual",34.033298,-118.0594177
473866,"Lake Pillsbury - Station 1",NA,"CA",30.48,11.5824,"https://pubs.usgs.gov/wsp/1619ee/report.pdf",788.122268982,"Drainage","manual",39.41637,-122.9404831
482136,"Pyramid Lake 01",NA,"CA",108.204,NA,"https://water.ca.gov/LegacyFiles/recreation/brochures/pdf/pyramid-lake.pdf",476.510536031,"DrainageLk","manual",34.666069,-118.7810593
475063,"Folsom Lake at Browns Ravine",NA,"CA",76.2,NA,"http://www.californiasgreatestlakes.com/folsom/folsom_lake.html",1716.34409733,"DrainageLk","manual",38.717361,-121.1031189
476689,"Camp 9",NA,"CA",16,NA,"http://fishing-app.gpsnauticalcharts.com/i-boating-fishing-web-app/fishing-marine-charts-navigation.html?title=Isabella+Lake+boating+app#13/35.6976/-118.4347",1161.72603191,"DrainageLk","manual",35.693001,-118.4434967
475520,"Lake of the Pines",NA,"CA",18.288,NA,"https://www.lakelubbers.com/lake-of-the-pines-1790/",88.8449149029,"Isolated","manual",39.035561,-121.0627975
481494,"Soulajule Reservoir-SM02-SM-02",NA,"CA",24.384,NA,"http://marinwater.org/DocumentCenter/View/3384/Soulajule-Final-Study-Plan_09_10_2015?bidId=",2.91591648925,"Drainage","manual",38.041801,-122.0513153
480735,"Rodeo Lagoon Car Bridge",NA,"CA",2,NA,"https://en.wikipedia.org/wiki/Rodeo_Lagoon",15.3292243241,"Isolated","manual",37.83202,-122.526062
483334,"Salton Sea Drain SW2 (Salt Creek, Mouth)",NA,"CA",15.5448,9.144,"https://www.desertusa.com/salton-sea/about-salton-sea.html",94309.8914827,"DrainageLk","manual",33.446671,-115.8433304
473431,"Lewiston Lake",NA,"CA",19.812,2.1336,"https://www.lakelubbers.com/lewiston-lake-789/",272.752348041,"DrainageLk","manual",40.746811,-122.7867203
450447,"GROUNDHOG",NA,"CO",27.432,NA,"https://pubs.usgs.gov/sim/3202/contents/SIM_3202.pdf",220.310160286,"Drainage","manual",37.7916,-108.293
376378,"PUEBLO",NA,"CO",41.148,NA,"http://users.frii.com/uliasz/wayfarer/pueblo.htm",941.147197155,"DrainageLk","manual",38.2669,-104.738
452123,"AVERY",NA,"CO",23.1648,NA,"https://www.fishidy.com/map/us/colorado/lake-avery-big-beaver-reservoir",82.8182322255,"Drainage","manual",39.971127,-107.648
449999,"ISLAND",NA,"CO",23.4696,NA,"https://cpw.state.co.us/thingstodo/Fishery%20Survey%20Summaries/IslandLake.pdf",58.2892899217,"Headwater","manual",39.0383,-107.999
450109,"EGGLESTON",NA,"CO",15.8496,NA,"https://cpw.state.co.us/thingstodo/Fishery%20Survey%20Summaries/EgglestonLake.pdf",52.5150592577,"DrainageLk","manual",39.0422,-107.946
452001,"STEAMBOAT",NA,"CO",21.336,7.62,"https://www.lakelubbers.com/steamboat-lake-1461/",391.679379524,"DrainageLk","manual",40.79327,-106.9485
449847,"HIGHLINE",NA,"CO",15.24,NA,"https://www.outtherecolorado.com/destination/highline-lake/",61.0090609476,"DrainageLk","manual",39.27056,-108.84199
449121,"RUEDI",NA,"CO",74.9808,NA,"Navionics",417.182033499,"DrainageLk","manual",39.36512,-106.81537
376470,"JOHN MARTIN",NA,"CO",18.288,3.048,"https://en.wikipedia.org/wiki/John_Martin_Reservoir",4729.13045705,"DrainageLk","manual",38.0674,-102.94363
376564,"HENRY",NA,"CO",3.048,NA,"https://cpw.state.co.us/thingstodo/Fishery%20Survey%20Summaries/HenryLake.pdf",483.918797504,"DrainageLk","manual",38.25955,-103.70437
376210,"MEREDITH",NA,"CO",1.8288,NA,"https://en.wikipedia.org/wiki/Lake_Meredith_(Colorado)",2241.42833835,"DrainageLk","manual",38.21206,-103.67446
376136,"TRINIDAD",NA,"CO",21.336,NA,"Navionics",318.137551825,"DrainageLk","manual",37.14162,-104.55412
361055,"ELEVENMILE",NA,"CO",41.148,NA,"https://cpw.state.co.us/thingstodo/Fishery%20Survey%20Summaries/ElevenmileReservoir.pdf",1259.45341585,"DrainageLk","manual",38.9282,-105.512
361290,"SPINNEY MOUNTAIN",NA,"CO",14.0208,NA,"https://cpw.state.co.us/thingstodo/Fishery%20Survey%20Summaries/SpinneyReservoir.pdf",972.347522029,"DrainageLk","manual",38.9831,-105.641
360006,"ANTERO",NA,"CO",NA,5.4864,"https://coloradofishing.net/ft_antero.htm",900.491822875,"Drainage","manual",38.9895,-105.906
359517,"CARTER",NA,"CO",54.864,NA,"http://www.northernwater.org/WaterProjects/CarterLake.aspx",453.329719369,"Headwater","manual",40.32512,-105.21458
361058,"CHATFIELD",NA,"CO",47,NA,"https://en.wikipedia.org/wiki/Chatfield_Reservoir",562.239083047,"DrainageLk","manual",39.55602,-105.06285
450081,"SAN CRISTOBAL",NA,"CO",27,NA,"https://en.wikipedia.org/wiki/Lake_San_Cristobal",124.533804226,"Headwater","manual",37.97537,-107.289
453321,"LEMON",NA,"CO",57.3024,NA,"Navionics",204.182171962,"DrainageLk","manual",37.39903,-107.66197
450419,"MCPHEE",NA,"CO",74.3712,NA,"Navionics",1754.46226924,"DrainageLk","manual",37.47396,-108.53091
447213,"ALBERTA PARK",NA,"CO",NA,3.9624,"http://www.thesportsglobe.com/PublicLands/PublicLandDetails.aspx?PublicLand=100004",14.6574189572,"Drainage","manual",37.469201,-106.765821
359295,"SOUTH DELANEY",NA,"CO",7.0104,NA,"https://cpw.state.co.us/thingstodo/Fishery%20Survey%20Summaries/SouthDelaneyButtesLake.pdf",61.2789098973,"Drainage","manual",40.6995,-106.461
359516,"BARR",NA,"CO",NA,10.3632,"https://www.denverpost.com/2013/08/30/fishing-bag-limits-lifted-as-barr-lake-is-drained-for-irrigation/",697.522232832,"DrainageLk","manual",39.95548,-104.75603
360338,"BEAR CREEK",NA,"CO",NA,14.6304,"http://www.ohranger.com/bear-creek-lake",41.6518755777,"DrainageLk","manual",39.65133,-105.14001
450098,"BLUE MESA",NA,"CO",97.2312,NA,"Navionics",3619.34418228,"DrainageLk","manual",38.46969,-107.30538
361059,"CHERRY CREEK",NA,"CO",NA,14.0208,"https://www.nwo.usace.army.mil/Missions/Dam-and-Lake-Projects/Tri-Lakes-Projects/Cherry-Creek-Dam/",358.575571563,"DrainageLk","manual",39.6408333,-104.8577778
449642,"GRANBY",NA,"CO",67.3608,NA,"http://www.northernwater.org/WaterProjects/LakeGranby.aspx",2863.14757099,"DrainageLk","manual",40.1597222,-105.8652778
449545,"GRAND",NA,"CO",118.5672,NA,"https://en.wikipedia.org/wiki/Grand_Lake_(Colorado)",195.295751541,"DrainageLk","manual",40.2486111,-105.8166667
360517,"PREWITT",NA,"CO",7.62,3.3528,"https://cpw.state.co.us/thingstodo/Fishery%20Survey%20Summaries/PrewittReservoir.pdf",764.024395183,"DrainageLk","manual",40.42386,-103.357296
449543,"DILLON",NA,"CO",NA,24.0792,"http://www.co.summit.co.us/234/Dillon-Reservoir-Recreation",1302.56964781,"DrainageLk","manual",39.621167,-106.057278
446970,"RIO GRANDE",NA,"CO",14.9352,NA,"Navionics",327.185272271,"DrainageLk","manual",37.71963,-107.276432
376140,"TWO BUTTES",NA,"CO",NA,6.096,"https://cpw.state.co.us/thingstodo/Fishery%20Survey%20Summaries/TwoButtesReservoir.pdf",306.532496701,"Headwater","manual",37.637835,-102.5420617
361291,"CHEESMAN RES",NA,"CO",57.912,NA,"Colorado Fishing Guide and Atlas (https://books.google.com/books?id=iZHrOoatvC4C&pg=PA134&lpg=PA134&dq=Vela+Reservoir,+Colorado+depth&source=bl&ots=oCVXcr3VZ_&sig=ACfU3U2WdyXPGt1d_WTWpuDuDM_1TSZixQ&hl=en&sa=X&ved=2ahUKEwjwuMzJm-7jAhURQq0KHSTtCrsQ6AEwA3oECAgQAQ#v=onepage&q=Vela%20Reservoir%2C%20Colorado%20depth&f=false)",358.143489173,"DrainageLk","manual",39.20905,-105.2739
450057,"Reed",NA,"CO",4.2672,NA,"Colorado Fishing Guide and Atlas (https://books.google.com/books?id=iZHrOoatvC4C&pg=PA134&lpg=PA134&dq=Vela+Reservoir,+Colorado+depth&source=bl&ots=oCVXcr3VZ_&sig=ACfU3U2WdyXPGt1d_WTWpuDuDM_1TSZixQ&hl=en&sa=X&ved=2ahUKEwjwuMzJm-7jAhURQq0KHSTtCrsQ6AEwA3oECAgQAQ#v=onepage&q=Vela%20Reservoir%2C%20Colorado%20depth&f=false)",7.41825451679,"DrainageLk","manual",39.03242833,-107.9490633
361116,"STRONTIA SPRINGS",NA,"CO",64.6176,NA,"Colorado Fishing Guide and Atlas (https://books.google.com/books?id=iZHrOoatvC4C&pg=PA134&lpg=PA134&dq=Vela+Reservoir,+Colorado+depth&source=bl&ots=oCVXcr3VZ_&sig=ACfU3U2WdyXPGt1d_WTWpuDuDM_1TSZixQ&hl=en&sa=X&ved=2ahUKEwjwuMzJm-7jAhURQq0KHSTtCrsQ6AEwA3oECAgQAQ#v=onepage&q=Vela%20Reservoir%2C%20Colorado%20depth&f=false)",32.7839769642,"DrainageLk","manual",39.43223,-105.1272
449962,"Vela",NA,"CO",7.0104,NA,"Colorado Fishing Guide and Atlas (https://books.google.com/books?id=iZHrOoatvC4C&pg=PA134&lpg=PA134&dq=Vela+Reservoir,+Colorado+depth&source=bl&ots=oCVXcr3VZ_&sig=ACfU3U2WdyXPGt1d_WTWpuDuDM_1TSZixQ&hl=en&sa=X&ved=2ahUKEwjwuMzJm-7jAhURQq0KHSTtCrsQ6AEwA3oECAgQAQ#v=onepage&q=Vela%20Reservoir%2C%20Colorado%20depth&f=false)",7.82084125617,"Drainage","manual",39.06296667,-107.871015
449751,"Waterdog",NA,"CO",6.096,NA,"https://www.fishexplorer.com/co/lakedet.asp?lid=2416",9.58743557013,"Headwater","manual",39.05707333,-108.0848683
449544,"SHADOW MOUNTAIN LAKE NEAR GRAND LAKE, CO.",NA,"CO",7.3152,NA,"https://www.lakelubbers.com/shadow-mountain-lake-879/",532.105343541,"DrainageLk","manual",40.2100833,-105.8420833
447083,"TERRACE RESERVOIR SITE T1B",NA,"CO",41.148,NA,"https://pubs.usgs.gov/wri/1996/4150/report.pdf",56.5978365928,"DrainageLk","manual",37.3605611,-106.2878104
376471,"NEENOSHE RESERVOIR DUP2",NA,"CO",21.336,7.62,"Mean: https://cpw.state.co.us/thingstodo/Fishery%20Survey%20Summaries/NeeNosheReservoir.pdf; Max: https://www.denverpost.com/2010/04/24/fish-kill-ravages-nee-noshe-nee-gronde/",1281.72852631,"DrainageLk","manual",38.333341,-102.7004725
450040,"CRYSTAL RES BLW MORROW POINT DAM NEAR CIMARRON, CO",NA,"CO",85.344,NA,"Navionics",99.1264112733,"DrainageLk","manual",38.4527659,-107.5422807
359576,"ARVADA-RESERVOIR NEAR TOWER",NA,"CO",18.288,NA,"Navionics",65.8143322388,"DrainageLk","manual",39.8219312,-105.2063769
359515,"STANDLEY LAKE -- NEAR CENTER",NA,"CO",29.2608,NA,"https://en.wikipedia.org/wiki/Standley_Lake",494.138296921,"DrainageLk","manual",39.863875,-105.1235963
452210,"SOUTH TWIN LAKE",NA,"CO",27,NA,"http://www.nativefishlab.net/library/textpdf/17769.pdf",20.2154750489,"Isolated","manual",39.9466486,-107.2922777
449845,"WILLOW CREEK RESERVOIR NEAR DAM NEAR GRANBY, CO",NA,"CO",37.7952,NA,"http://www.northernwater.org/WaterProjects/WillowCreek.aspx",118.223000234,"DrainageLk","manual",40.1480556,-105.9436111
360835,"SANDBEACH LAKE",NA,"CO",15.24,NA,"http://www.rockymountainhikingtrails.com/sandbeach-lake.htm",4.85614284458,"Headwater","manual",40.2172072,-105.6016691
449631,"COLUMBINE LAKE",NA,"CO",2.4384,NA,"https://www.fs.usda.gov/recarea/arp/recarea/?recid=28656",12.3258222266,"Drainage","manual",40.2594295,-105.8475125
359781,"SKY POND SURFACE - LOCH VALE",NA,"CO",7.4,4.5,"http://culter.colorado.edu/lake-algae/lakes/lake.php?lake_ID=5",4.11260456889,"Drainage","manual",40.278318,-105.668894
360300,"GLASS LAKE SURFACE - LOCH VALE",NA,"CO",4.7,2.8,"http://culter.colorado.edu/lake-algae/lakes/lake.php?lake_ID=6",1.272371391,"Drainage","manual",40.2819291,-105.6655605
359787,"THE LOCH SURFACE - LOCH VALE",NA,"CO",4.7,1.5,"http://culter.colorado.edu/lake-algae/lakes/lake.php?lake_ID=4",5.27314203579,"Drainage","manual",40.2924846,-105.6572268
359564,"LAKE ESTES NEAR DAM NEAR ESTES PARK, CO",NA,"CO",13.716,NA,"http://www.northernwater.org/WaterProjects/LakeEstes.aspx",56.0693450078,"DrainageLk","manual",40.3752615,-105.4891638
360045,"LOUISE S",NA,"CO",7.62,NA,"https://www.tidalfish.com/forums/showthread.php/268875-Lake-Louise-RMNP",2.43622928889,"Headwater","manual",40.5077609,-105.620835
360793,"HORSETOOTH RESERVOIR NR SPRING CANYON DAM SITE C",NA,"CO",60.96,NA,"https://en.wikipedia.org/wiki/Horsetooth_Reservoir",735.54585974,"DrainageLk","manual",40.5297049,-105.1444258
358001,"JONAH LAKE",NA,"CO",3.6576,NA,"http://mountainjaymedia.com/pages/mountzirkelwilderness/fishing_information_mount_zirkel_wilderness_area.htm",2.84034305823,"Headwater","manual",40.5516441,-106.677821
358002,"WHALE LAKE",NA,"CO",11.2776,NA,"http://mountainjaymedia.com/pages/mountzirkelwilderness/fishing_information_mount_zirkel_wilderness_area.htm",3.61616594996,"Drainage","manual",40.5569219,-106.6744875
452237,"FISH HAWK LAKE, CO",NA,"CO",7.3152,NA,"http://mountainjaymedia.com/pages/mountzirkelwilderness/fishing_information_mount_zirkel_wilderness_area.htm",3.15189786551,"DrainageLk","manual",40.6288889,-106.7694444
452173,"LAKE MARGARET",NA,"CO",15.24,NA,"http://mountainjaymedia.com/pages/mountzirkelwilderness/fishing_information_mount_zirkel_wilderness_area.htm",11.6468742675,"Headwater","manual",40.6330307,-106.7569903
452284,"LAKE ELBERT",NA,"CO",10.668,NA,"http://mountainjaymedia.com/pages/mountzirkelwilderness/fishing_information_mount_zirkel_wilderness_area.htm",4.64453819676,"Headwater","manual",40.6341423,-106.7075437
359272,"LOWER RAINBOW LAKE",NA,"CO",8.8392,NA,"http://mountainjaymedia.com/pages/mountzirkelwilderness/fishing_information_mount_zirkel_wilderness_area.htm",2.95171993615,"DrainageLk","manual",40.6485874,-106.6180949
358511,"MIDDLE RAINBOW LAKE",NA,"CO",10.0584,NA,"http://mountainjaymedia.com/pages/mountzirkelwilderness/fishing_information_mount_zirkel_wilderness_area.htm",2.46633761059,"DrainageLk","manual",40.6488652,-106.6230951
451886,"LAKE OF THE CRAGS IN MOUNT ZIRKEL WILDERENSS, CO",NA,"CO",3.3528,NA,"http://mountainjaymedia.com/pages/mountzirkelwilderness/fishing_information_mount_zirkel_wilderness_area.htm",2.15997507185,"Headwater","manual",40.649142,-106.7139327
450153,"UPPER EGGLESTON LAKE NEAR GRAND MESA, CO.",NA,"CO",15.8496,NA,"https://cpw.state.co.us/thingstodo/Fishery%20Survey%20Summaries/EgglestonLake.pdf",11.825330359,"Drainage","manual",39.0519247,-107.9325665
449341,"KITSON RESERVOIR NEAR GRAND MESA, CO.",NA,"CO",3.9624,NA,"https://books.google.com/books?id=iZHrOoatvC4C&pg=PA134&lpg=PA134&dq=Vela+Reservoir,+Colorado+depth&source=bl&ots=oCVXcr3VZ_&sig=ACfU3U2WdyXPGt1d_WTWpuDuDM_1TSZixQ&hl=en&sa=X&ved=2ahUKEwjwuMzJm-7jAhURQq0KHSTtCrsQ6AEwA3oECAgQAQ#v=snippet&q=neversweat&f=false",5.75118204398,"Drainage","manual",39.0808133,-107.9525675
449455,"NEVERSWEAT RESERVOIR NEAR GRAND MESA, CO.",NA,"CO",4.572,NA,"https://books.google.com/books?id=iZHrOoatvC4C&pg=PA134&lpg=PA134&dq=Vela+Reservoir,+Colorado+depth&source=bl&ots=oCVXcr3VZ_&sig=ACfU3U2WdyXPGt1d_WTWpuDuDM_1TSZixQ&hl=en&sa=X&ved=2ahUKEwjwuMzJm-7jAhURQq0KHSTtCrsQ6AEwA3oECAgQAQ#v=snippet&q=neversweat&f=false",9.37574204992,"Drainage","manual",39.0927577,-107.9392338
449753,"BONHAM RESERVOIR NEAR GRAND MESA, CO.",NA,"CO",14.6304,NA,"https://books.google.com/books?id=iZHrOoatvC4C&pg=PA134&lpg=PA134&dq=Vela+Reservoir,+Colorado+depth&source=bl&ots=oCVXcr3VZ_&sig=ACfU3U2WdyXPGt1d_WTWpuDuDM_1TSZixQ&hl=en&sa=X&ved=2ahUKEwjwuMzJm-7jAhURQq0KHSTtCrsQ6AEwA3oECAgQAQ#v=snippet&q=bonham&f=false",30.7776286665,"DrainageLk","manual",39.103869,-107.8928433
360883,"TERRY LAKE",NA,"CO",10.668,NA,"https://www.tlra.co/terry-lake-history/",129.669234072,"DrainageLk","manual",40.2233181,-105.123039
359562,"MARYS LAKE",NA,"CO",10.0584,NA,"http://www.northernwater.org/WaterProjects/MarysLake.aspx",15.1253699335,"Drainage","manual",40.3422062,-105.5302769
358003,"SHOESTRING LAKE",NA,"CO",2.1336,NA,"http://mountainjaymedia.com/pages/mountzirkelwilderness/fishing_information_mount_zirkel_wilderness_area.htm",1.68580954273,"Drainage","manual",40.5574775,-106.6689316
357491,"MARTHA LAKE IN MOUNT ZIRKEL WILDERNESS, CO",NA,"CO",9.7536,NA,"http://mountainjaymedia.com/pages/mountzirkelwilderness/fishing_information_mount_zirkel_wilderness_area.htm",3.45602417961,"Headwater","manual",40.5583106,-106.6814322
452114,"PORCUPINE LAKE",NA,"CO",5.1816,NA,"http://mountainjaymedia.com/pages/mountzirkelwilderness/fishing_information_mount_zirkel_wilderness_area.htm",1.80134035409,"Drainage","manual",40.6191424,-106.7206
452113,"SNOWSTORM LAKE",NA,"CO",13.716,NA,"http://mountainjaymedia.com/pages/mountzirkelwilderness/fishing_information_mount_zirkel_wilderness_area.htm",5.52658431097,"DrainageLk","manual",40.6285863,-106.765324
452283,"LUNA LAKE IN MOUNT ZIRKEL WILDERENSS, CO",NA,"CO",16.764,NA,"http://mountainjaymedia.com/pages/mountzirkelwilderness/fishing_information_mount_zirkel_wilderness_area.htm",15.5241751432,"Drainage","manual",40.6413643,-106.7214331
358012,"SLIDE LAKE",NA,"CO",19.812,NA,"http://mountainjaymedia.com/pages/mountzirkelwilderness/fishing_information_mount_zirkel_wilderness_area.htm",9.35977230574,"Isolated","manual",40.6502536,-106.6592079
357493,"UPPER SLIDE LAKE IN MOUNT ZIRKEL WILDERNESS, CO",NA,"CO",10.668,NA,"http://mountainjaymedia.com/pages/mountzirkelwilderness/fishing_information_mount_zirkel_wilderness_area.htm",2.58864066155,"Isolated","manual",40.655809,-106.6658748
451945,"NORTH LAKE",NA,"CO",2.7432,NA,"http://mountainjaymedia.com/pages/mountzirkelwilderness/fishing_information_mount_zirkel_wilderness_area.htm",1.62726859427,"Drainage","manual",40.7230298,-106.6919863
359008,"TWIN LAKE (LOWER)",NA,"CO",6.7056,NA,"http://mountainjaymedia.com/pages/mountzirkelwilderness/fishing_information_mount_zirkel_wilderness_area.htm",8.87852653865,"Isolated","manual",40.8160842,-106.6136489
359009,"BLUE LAKE DUP2",NA,"CO",40.2336,NA,"http://mountainjaymedia.com/pages/mountzirkelwilderness/fishing_information_mount_zirkel_wilderness_area.htm",8.86862131211,"Drainage","manual",40.8246952,-106.6155934
359263,"SEVEN LAKES",NA,"CO",7.62,NA,"http://mountainjaymedia.com/pages/mountzirkelwilderness/fishing_information_mount_zirkel_wilderness_area.htm",3.88448093234,"Headwater","manual",40.8955269,-106.6814287
7096,"Pickerel Lake",NA,"CT",3.048,1.8288,"Healy. Water-Quality Characteristics Of Selected Public Recreational Lakes And Ponds in Connecticut",32.2771098507,"Drainage","manual",41.52566667,-72.42033333
6817,"Silver Lake",NA,"CT",4.8768,1.524,"https://portal.ct.gov/CAES/Invasive-Aquatic-Plant-Program/Silver-Lake/Silver-Lake-Maps",56.8912838864,"DrainageLk","manual",41.58566667,-72.76933333
6800,"Pocotopaug Lake",NA,"CT",11.5824,3.68808,"https://www.easthamptonct.gov/sites/easthamptonct/files/uploads/lakepoco9pointplanfinal.pdf",206.907296977,"Drainage","manual",41.596075,-72.50807778
6684,"West Thompson Reservoir",NA,"CT",15.3924,6.52272,"Healy. Water-Quality Characteristics Of Selected Public Recreational Lakes And Ponds in Connecticut",81.0853819284,"DrainageLk","manual",41.95199167,-71.90238333
7195,"Aspinook Pond",NA,"CT",8.2296,2.65176,"Healy. Water-Quality Characteristics Of Selected Public Recreational Lakes And Ponds in Connecticut",124.982180947,"DrainageLk","manual",41.63902778,-71.97558611
6902,"Lake Lillinonah",NA,"CT",30.48,7.62,NA,619.580593191,"DrainageLk","manual",41.53479722,-73.40539722
7132,"Heminway Pond",NA,"CT",1.2192,NA,"https://www.ct.gov/deep/lib/deep/natural_resources/housatonic/heminway_pond_dam_proposal_final.pdf",2.94757674266,"DrainageLk","manual",41.60495563,-73.112807
18395,"Pattaconk Reservoir",NA,"CT",4.572,2.62128,"Healy. Water-Quality Characteristics Of Selected Public Recreational Lakes And Ponds in Connecticut",20.5584094893,"Drainage","manual",41.40889167,-72.52602222
7435,"Millers Pond",NA,"CT",5.4864,NA,"http://cteco.uconn.edu/maps/lake/bathymetry/Bathymetry_Millers_Pond.pdf",12.6917029722,"Drainage","manual",41.47590278,-72.63436111
7412,"Mashapaug Lake",NA,"CT",13.1064,2.80416,"Healy. Water-Quality Characteristics Of Selected Public Recreational Lakes And Ponds in Connecticut",120.562767398,"DrainageLk","manual",42.01425278,-72.13197778
6616,"Lake Chaffee",NA,"CT",3.3528,1.8288,"https://www.lakechaffee.net/facts.php",21.1068413304,"Headwater","manual",41.93935556,-72.19531667
6849,"Lake Hayward",NA,"CT",11.2776,3.048,"Healy. Water-Quality Characteristics Of Selected Public Recreational Lakes And Ponds in Connecticut",72.2133118861,"DrainageLk","manual",41.52098333,-72.32968333
7138,"Quaddick Reservoir",NA,"CT",5.4864,NA,"https://en.wikipedia.org/wiki/Quaddick_Reservoir",84.1174739414,"DrainageLk","manual",41.95653333,-71.81753611
7179,"Saugatuck Reservoir",NA,"CT",33.528,13.716,"https://en.wikipedia.org/wiki/Saugatuck_Reservoir",333.050264161,"DrainageLk","manual",41.25099444,-73.35025
6795,"Williams Pond",NA,"CT",2.5,NA,"https://portal.ct.gov/-/media/CAES/Invasive-Aquatic-Plant-Program/Survey-Results/Williams-Pond/WilliamsPondLebanonTDpdf.pdf?la=en",109.301134312,"Drainage","manual",41.63042778,-72.30146389
6599,"Lake Beseck",NA,"CT",7.3152,3.41376,"Healy. Water-Quality Characteristics Of Selected Public Recreational Lakes And Ponds in Connecticut",45.1625266874,"Headwater","manual",41.519,-72.73
6975,"Cedar Pond",NA,"CT",5.3,NA,"https://portal.ct.gov/CAES/Invasive-Aquatic-Plant-Program/Cedar-Pond/Cedar-Pond-North-Branford--Map",8.73870407207,"Drainage","manual",41.32105556,-72.7795
6625,"Linsley Pond",NA,"CT",13.4112,6.2484,"https://portal.ct.gov/CAES/Invasive-Aquatic-Plant-Program/Linsley-Pond/Linsley-Pond-Maps",9.275223028,"Drainage","manual",41.31808333,-72.78444444
6906,"Hanover Reservoir",NA,"CT",2.1336,0.762,"Healy. Water-Quality Characteristics Of Selected Public Recreational Lakes And Ponds in Connecticut",8.28914426894,"DrainageLk","manual",41.64856944,-72.06162222
6781,"Holbrook Pond",NA,"CT",1.8288,0.70104,"Healy. Water-Quality Characteristics Of Selected Public Recreational Lakes And Ponds in Connecticut",30.3978417519,"Drainage","manual",41.67605,-72.37505556
6825,"Eagleville Pond",NA,"CT",3.048,0.9144,"Healy. Water-Quality Characteristics Of Selected Public Recreational Lakes And Ponds in Connecticut",32.1693076497,"DrainageLk","manual",41.78508056,-72.28155556
7180,"Squantz Pond",NA,"CT",14.3256,6.97992,"https://www.ctfishfinder.com/squantz-pond-71-location.html",109.728862447,"DrainageLk","manual",41.51151944,-73.47283056
7114,"Moodus Reservoir",NA,"CT",2.7432,NA,"http://cteco.uconn.edu/maps/lake/bathymetry/Bathymetry_Moodus_Reservoir_Upper.pdf",186.339936937,"DrainageLk","manual",41.50359722,-72.40714167
6551,"Batterson Park Pond",NA,"CT",6.096,4.2672,"https://portal.ct.gov/CAES/Invasive-Aquatic-Plant-Program/Batterson-Park-Pond/Batterson-Park-Pond-Maps",60.5973100464,"DrainageLk","manual",41.711875,-72.7858
6614,"East Twin Lake (Washinee Lake)",NA,"CT",24.384,9.87552,"Healy. Water-Quality Characteristics Of Selected Public Recreational Lakes And Ponds in Connecticut",228.789042449,"Drainage","manual",42.02533056,-73.38288889
6809,"Gardner Lake",NA,"CT",13.1064,4.17576,"Healy. Water-Quality Characteristics Of Selected Public Recreational Lakes And Ponds in Connecticut",213.179579503,"Drainage","manual",41.5075,-72.222
7221,"Middle Bolton Lake",NA,"CT",6.096,3.6576,"https://portal.ct.gov/CAES/Invasive-Aquatic-Plant-Program/Bolton-Lake-Middle/Middle-Bolton-Lake-Maps",47.4291223506,"Drainage","manual",41.80966667,-72.42616667
50918,"Uncas Lake",NA,"CT",11.8872,7.3152,"https://portal.ct.gov/CAES/Invasive-Aquatic-Plant-Program/Uncas-Lake/Uncas-Lake-Maps",29.79689962,"DrainageLk","manual",41.37283333,-72.31883333
7102,"Middle Bolton Lake",NA,"CT",6.096,3.6576,"https://portal.ct.gov/CAES/Invasive-Aquatic-Plant-Program/Bolton-Lake-Middle/Middle-Bolton-Lake-Maps",72.0638850376,"DrainageLk","manual",41.80021878,-72.42719614
7122,"Amos Lake",NA,"CT",13.716,6.096,"https://www.fishingnortheast.net/choose-your-state/connecticut/connecticut-lakes-ponds/amos-lake-preston/",44.0152650026,"Isolated","manual",41.51623056,-71.97468056
6628,"Wononscopomuc Lake",NA,"CT",32.9184,11.06424,"Healy. Water-Quality Characteristics Of Selected Public Recreational Lakes And Ponds in Connecticut",140.878515186,"Drainage","manual",41.95531944,-73.44481389
6767,"Mudge Pond",NA,"CT",9.7536,NA,"http://cteco.uconn.edu/maps/lake/bathymetry/Bathymetry_Mudge_Pond.pdf",86.4467589416,"DrainageLk","manual",41.90109167,-73.471025
110941,"Allen Brook Pond",NA,"CT",2.4384,NA,"http://cteco.uconn.edu/maps/lake/bathymetry/Bathymetry_Allen_Brook_Pond.pdf",1.93800161315,"Drainage","manual",41.4260905,-72.83665636
7284,"Lake McDonough (Compensating Reservoir)",NA,"CT",12.192,NA,"http://cteco.uconn.edu/maps/lake/bathymetry/Bathymetry_McDonough_Lake.pdf",156.092650183,"DrainageLk","manual",41.88494167,-72.96079167
67509,"Day Pond",NA,"CT",3.048,NA,"http://cteco.uconn.edu/maps/lake/bathymetry/Bathymetry_Day_Pond.pdf",2.88242735252,"Drainage","manual",41.5581,-72.42
60226,"Coventry Lake",NA,"CT",10.9728,NA,"http://cteco.uconn.edu/maps/lake/bathymetry/Bathymetry_Coventry_Lake.pdf",151.527541251,"Headwater","manual",41.770584,-72.321969
34165,"Stillwater Pond",NA,"CT",7.3152,NA,"http://cteco.uconn.edu/maps/lake/bathymetry/Bathymetry_Stillwater_Pond.pdf",37.6410621604,"DrainageLk","manual",41.83487,-73.14888
62380,"The middle of Foot Bridge on the Sunset Pond",NA,"DE",3.048,1.43256,"https://www.njfishandwildlife.com/pdf/lakes/sunset.pdf",18.4209808086,"Drainage","manual",39.616836,-75.738129
142325,"Lake Como boat ramp",NA,"DE",2.4384,1.2192,"https://www.landbigfish.com/fishingspots/showcase.cfm?ID=1932",21.3436575445,"Drainage","manual",39.295659,-75.600047
142108,"Garrisons Lake,100 Yds Abv Spillway, 50% RB",NA,"DE",1.2192,NA,"https://www.arcgis.com/apps/MapSeries/index.html?appid=2eb3bbb68ad8414e82c6f89e63ee26b1",33.8975735843,"DrainageLk","manual",39.245008,-75.591841
141951,"Middle of Masseys Millpond",NA,"DE",1.8288,NA,"https://www.arcgis.com/apps/MapSeries/index.html?appid=2eb3bbb68ad8414e82c6f89e63ee26b1",15.6375850287,"Drainage","manual",39.239378,-75.623143
141953,"Killens Pond at Road 384",NA,"DE",2.1336,NA,"https://www.arcgis.com/apps/MapSeries/index.html?appid=2eb3bbb68ad8414e82c6f89e63ee26b1",31.9328038546,"Drainage","manual",38.981221,-75.529667
142246,"McGinnis Pond @ McGinnis Pond Rd. (Rd. 378)",NA,"DE",2.7432,NA,"https://www.arcgis.com/apps/MapSeries/index.html?appid=2eb3bbb68ad8414e82c6f89e63ee26b1",15.518709385,"Drainage","manual",39.036355,-75.510691
142349,"Silver Lake @ Maple Ave.",NA,"DE",2.7432,1.2192,"https://www.lakelubbers.com/silver-lake-577/",11.71939537,"DrainageLk","manual",38.91126,-75.432996
142344,"Middle of Haven lake",NA,"DE",2.1336,NA,"http://kayakdelmarva.blogspot.com/2016/06/haven-lake.html",34.5767952871,"DrainageLk","manual",38.911544,-75.451795
141807,"Middle of Griffith Lake",NA,"DE",0.94488,NA,"http://www.dnrec.delaware.gov/swc/wa/Documents/TMDL_TechnicalAnalysisDocuments/12_MispillionCedarTMDLAnalyses.pdf",15.8580358274,"DrainageLk","manual",38.908998,-75.47081
142031,"Middle of Blairs Pond at Rd. 443",NA,"DE",0.9144,NA,"http://www.dnrec.delaware.gov/swc/wa/Documents/TMDL_TechnicalAnalysisDocuments/12_MispillionCedarTMDLAnalyses.pdf",2.15326661569,"Drainage","manual",38.905337,-75.490327
142339,"Middle of Abbotts Pond",NA,"DE",1.524,NA,"https://www.arcgis.com/apps/MapSeries/index.html?appid=2eb3bbb68ad8414e82c6f89e63ee26b1",6.44475777019,"Drainage","manual",38.883635,-75.477202
142121,"Cubbage Pond Outlet at Road 214",NA,"DE",1.8288,NA,"http://www.dnrec.delaware.gov/swc/wa/Documents/TMDL_TechnicalAnalysisDocuments/12_MispillionCedarTMDLAnalyses.pdf",15.1457538415,"Drainage","manual",38.866203,-75.390699
141967,"Cedar Creek Mill Pond, middle at Rd. 224",NA,"DE",1.8288,NA,"http://www.dnrec.delaware.gov/swc/wa/Documents/TMDL_TechnicalAnalysisDocuments/12_MispillionCedarTMDLAnalyses.pdf",7.64962807811,"Drainage","manual",38.867511,-75.376885
142353,"Middle of Hudson Pond",NA,"DE",1.3716,NA,"http://www.dnrec.delaware.gov/swc/wa/Documents/TMDL_TechnicalAnalysisDocuments/12_MispillionCedarTMDLAnalyses.pdf",7.78703941014,"Drainage","manual",38.838266,-75.435424
142372,"Wagamons Pond Outlet at County Rd. 250",NA,"DE",2.1336,NA,"https://www.arcgis.com/apps/MapSeries/index.html?appid=2eb3bbb68ad8414e82c6f89e63ee26b1&entry=29%20target=",16.8210711012,"DrainageLk","manual",38.777313,-75.313068
147892,"Williams Pond @ East Poplar St.",NA,"DE",2.4384,1.524,"https://www.landbigfish.com/fishingspots/showcase.cfm?ID=2053",34.8780836294,"DrainageLk","manual",38.64302,-75.60543
145435,"Hearns Pond, 100 yrd above spillway",NA,"DE",2.7432,NA,"https://dnrec.maps.arcgis.com/apps/MapSeries/index.html?appid=2eb3bbb68ad8414e82c6f89e63ee26b1&entry=11%20target=",24.6866981134,"Drainage","manual",38.679316,-75.595566
149098,"Chipman Pd 2/3 dist from splwy to inflo 50% RB",NA,"DE",2.4384,NA,"https://www.arcgis.com/apps/MapSeries/index.html?appid=2eb3bbb68ad8414e82c6f89e63ee26b1&entry=29%20target=",22.1856040188,"DrainageLk","manual",38.567339,-75.536125
142057,"Ingrams Pond Near Tree Stumps Abv Surface 50% Rb",NA,"DE",2.1336,NA,"https://dnrec.maps.arcgis.com/apps/MapSeries/index.html?appid=2eb3bbb68ad8414e82c6f89e63ee26b1&entry=11%20target=",23.1781883727,"DrainageLk","manual",38.587586,-75.327947
142280,"Betts Pond Outflow at Rt 20",NA,"DE",2.4384,NA,"http://www.nativefishlab.net/library/textpdf/20645.pdf",13.2985529976,"DrainageLk","manual",38.595842,-75.304214
142203,"Waples Pond @ Rt. 1",NA,"DE",1.2192,NA,"https://www.arcgis.com/apps/MapSeries/index.html?appid=2eb3bbb68ad8414e82c6f89e63ee26b1&entry=29%20target=",3.53342630705,"DrainageLk","manual",38.824218,-75.308614
148474,"Broad Creek, Tussock Pond at Road 494",NA,"DE",1.8288,NA,"https://www.arcgis.com/apps/MapSeries/index.html?appid=2eb3bbb68ad8414e82c6f89e63ee26b1&entry=29%20target=",2.55174275494,"Drainage","manual",38.541464,-75.637724
149103,"Trap Pond, Racoon Pond Spillway Rd72",NA,"DE",1.8288,NA,"https://www.arcgis.com/apps/MapSeries/index.html?appid=2eb3bbb68ad8414e82c6f89e63ee26b1&entry=29%20target=",7.07124105653,"Drainage","manual",38.515593,-75.460547
141830,"Middle of Betts Pond at Rt. 113 Bridge",NA,"DE",2.4384,NA,"http://www.nativefishlab.net/library/textpdf/20645.pdf",9.90733477449,"DrainageLk","manual",38.595057,-75.312427
114050,"Silver Lake @ Silver Lake Rd. (Rd.442)",NA,"DE",2.7432,1.2192,"https://www.lakelubbers.com/silver-lake-577/",16.7043634816,"Drainage","manual",39.438725,-75.693194
141883,"Derby Pond @ Boat Ramp (Rt. 13A)",NA,"DE",1.8288,NA,"https://www.arcgis.com/apps/MapSeries/index.html?appid=2eb3bbb68ad8414e82c6f89e63ee26b1&entry=29%20target=",9.29662216818,"Drainage","manual",39.085345,-75.559194
142025,"Wyoming Pond outfall at Rt. 15",NA,"DE",2.4384,NA,"http://www.nativefishlab.net/library/textpdf/20644.pdf",19.0220047684,"Drainage","manual",39.123146,-75.555602
142248,"Andrews Lake @ Andrews Lake Rd. (Rd. 380)",NA,"DE",2.7432,1.6764,"https://www.arcgis.com/apps/MapSeries/index.html?appid=2eb3bbb68ad8414e82c6f89e63ee26b1&entry=29%20target=",8.39227292537,"Isolated","manual",39.024793,-75.508225
141805,"Blairs Pond @ boat ramp off Williamsville Rd. (Rd. 443)",NA,"DE",0.9144,NA,"http://www.dnrec.delaware.gov/swc/wa/Documents/TMDL_TechnicalAnalysisDocuments/12_MispillionCedarTMDLAnalyses.pdf",12.6392748408,"Drainage","manual",38.904363,-75.486214
144820,"Butler Mill Branch @ Craigs Mill Rd. (Rd. 542A)",NA,"DE",2.1336,NA,"https://www.arcgis.com/apps/MapSeries/index.html?appid=2eb3bbb68ad8414e82c6f89e63ee26b1&entry=29%20target=",6.6633493486,"Drainage","manual",38.627401,-75.646083
146676,"Horsey Pond @ Sharptown Rd. (Rt. 24)",NA,"DE",2.7432,NA,"https://www.arcgis.com/apps/MapSeries/index.html?appid=2eb3bbb68ad8414e82c6f89e63ee26b1&entry=29%20target=",23.6113285981,"Drainage","manual",38.546463,-75.580664
144835,"Trap Pond 200 Yards Above Spillway 50% RB",NA,"DE",1.8288,1.524,"https://www.arcgis.com/apps/MapSeries/index.html?appid=2eb3bbb68ad8414e82c6f89e63ee26b1&entry=29%20target=",38.290816349,"Drainage","manual",38.529566,-75.470411
142130,"Millsboro Pond @ John Williams Hwy. (Rt. 24)",NA,"DE",3.6576,NA,"https://www.lakelubbers.com/millsboro-pond-604/",54.2132961018,"DrainageLk","manual",38.594322,-75.290992
220809,"ALBERTO LAKE?",NA,"FL",NA,14.4,"https://aslopubs.onlinelibrary.wiley.com/doi/pdf/10.4319/lo.1990.35.4.0870",13.7562765779,"Drainage","manual",30.61018472,-84.06382
218424,"ALLIGATOR LAKE",NA,"FL",6.4008,NA,"navionics",128.325772811,"Isolated","manual",30.17445361,-82.62742861
214355,"ALLIGATOR LAKE",NA,"FL",6.4008,NA,"navionics",69.3075979406,"Headwater","manual",30.17473667,-82.63047861
199678,"AMORET, LAKE",NA,"FL",3.6576,NA,"https://florida.hometownlocator.com/maps/feature-map,ftc,1,fid,277839,n,lake%20amoret.cfm",5.26860567964,"Drainage","manual",27.86340028,-81.56934944
193544,"BEAR HEAD LAKE",NA,"FL",NA,3.048,"https://yourorlando.com/real-estate/lakes/orlando-fl/bear-head-lake",6.29443578534,"Isolated","manual",28.4524625,-81.36164139
234392,"BIG BLUE LAKE",NA,"FL",22.9,NA,"https://www.researchgate.net/publication/313020318_Subbottom_Profiling_Investigation_of_Sinkhole_Lake_Structure_in_Bay_and_Washington_Counties_Florida",255.646749537,"Drainage","manual",30.46118278,-85.74601028
191167,"BONNET LAKE",NA,"FL",1.2192,NA,"navionics",92.9337112528,"DrainageLk","manual",28.14108972,-81.65591028
204033,"BONNET, LAKE",NA,"FL",3.9624,1.2192,"http://www.polk.wateratlas.usf.edu/lake/?wbodyatlas=lake&wbodyid=160542",31.9649047942,"Headwater","manual",28.04682194,-81.974995
208979,"BRADLEY LAKE",NA,"FL",3.048,NA,"navionics",215.545839374,"DrainageLk","manual",28.73225278,-82.29040639
233608,"BULL POND",NA,"FL",NA,2.3,"http://www.seminole.wateratlas.usf.edu/upload/documents/f95-236.pdf",4.19871542965,"Drainage","manual",30.67933417,-86.37700917
188233,"CARRAWAY LAKE",NA,"FL",1,NA,"https://www.idigbio.org/portal/records/32bacc26-c9f5-4374-be20-8c99e4c18bdf",86.1188518685,"DrainageLk","manual",29.17321444,-81.32286083
213000,"CHERRY LAKE",NA,"FL",3.9624,NA,"navionics",194.023650111,"Isolated","manual",30.60852583,-83.41172028
195565,"CLARKE, LAKE",NA,"FL",4.2672,NA,"navionics",22.6433808816,"Drainage","manual",26.64459833,-80.07384944
210451,"CLEAR LAKE",NA,"FL",1.524,NA,"https://www.swfwmd.state.fl.us/sites/default/files/documents-and-reports/reports/clear_lake_proposed_mfls_memo_28jan2004.pdf",7.57000232904,"Headwater","manual",28.36248778,-82.47855083
232126,"COMPASS LAKE",NA,"FL",11.5824,NA,"navionics",235.519111355,"Drainage","manual",30.58894194,-85.38266806
195577,"COOT BAY",NA,"FL",1.2192,NA,"navionics",448.037082989,"DrainageLk","manual",25.18696972,-80.91377528
213253,"CORBETT ESTATE POND",NA,"FL",1.524,NA,"navionics",38.4488894247,"Isolated","manual",30.54571056,-83.11313833
192034,"COWPEN LAKE",NA,"FL",5.7912,NA,"navionics",28.0075227499,"Isolated","manual",29.60573639,-82.00962528
232510,"CREWS LAKE",NA,"FL",4.572,NA,"navionics",11.5531988704,"Drainage","manual",30.43207667,-85.91986417
205118,"DEATON, LAKE",NA,"FL",4.572,NA,"navionics",214.517332708,"Drainage","manual",28.83829611,-81.98300778
234510,"DEER POINT LAKE",NA,"FL",18.8976,NA,"navionics",1837.43191474,"DrainageLk","manual",30.28939472,-85.59359667
197125,"EASY, LAKE",NA,"FL",8.8392,NA,"navionics",135.971088432,"Drainage","manual",27.85799833,-81.5594825
203121,"HANCOCK, LAKE",NA,"FL",1.524,NA,"navionics",1854.91859599,"DrainageLk","manual",27.96566361,-81.84648111
207560,"HOLLOWAY, LAKE",NA,"FL",3.3528,NA,"navionics",10.0506413578,"Isolated","manual",28.03407,-81.91706472
205313,"IDA, LAKE",NA,"FL",4.572,2.83464,"https://www.swfwmd.state.fl.us/sites/default/files/medias/documents/WaterChemistryofSWFWMDLakes.pdf",6.9080567525,"Headwater","manual",28.05068528,-81.73237083
198081,"IDA, LAKE",NA,"FL",5.4864,NA,"navionics",59.5503178965,"DrainageLk","manual",26.477965,-80.08109778
194337,"JACKSON, LAKE",NA,"FL",1.524,NA,"navionics",404.150783963,"DrainageLk","manual",27.91193639,-81.15158028
197318,"LAKE BUMBY",NA,"FL",3.3528,NA,"navionics",4.45226757464,"Isolated","manual",28.48624611,-81.39401389
189382,"LAKE CLAIRE",NA,"FL",3.6576,2.286,"https://books.google.com/books?id=nmwYAQAAIAAJ&pg=PA6&lpg=PA6&dq=%22lake+claire%22+%22depth%22+orange+%22florida%22&source=bl&ots=6Uc_UwHoa9&sig=ACfU3U104Sfpg6PLxZVZ6GFvS6kvXSx8Qg&hl=en&sa=X&ved=2ahUKEwjg3dmvu8HjAhWxB50JHYYHC8gQ6AEwC3oECAgQAQ#v=onepage&q=%22lake%20claire%22%20%22depth%22%20orange%20%22florida%22&f=false",2.89399596144,"Isolated","manual",28.60956139,-81.19892111
194611,"LAKE DAVENPORT",NA,"FL",32.9184,NA,"https://www.lakelubbers.com/florida-lakes-highest-elevations-L20-C4/",17.4146868389,"Isolated","manual",28.16011056,-81.61032
190373,"LAKE DIAS",NA,"FL",4.2672,NA,"navionics",281.413195914,"DrainageLk","manual",29.15955583,-81.316005
212461,"LAKE GORDON",NA,"FL",2.1336,NA,"navionics",33.5928693458,"Drainage","manual",27.84777556,-81.63247389
208380,"LAKE HOOKER",NA,"FL",0.9144,0.6096,"http://www.tampabay.wateratlas.usf.edu/lake/default.asp?wbodyid=5421&wbodyatlas=lake",18.6467902545,"Drainage","manual",27.98067028,-82.26352444
187095,"LAKE MAITLAND",NA,"FL",7.62,NA,"navionics",9.97492211909,"Isolated","manual",28.62433167,-81.38156222
205356,"LAKE MANATEE",NA,"FL",11.5824,NA,"https://pubs.usgs.gov/sim/3112/pdf/sim3112.pdf",477.39744044,"Headwater","manual",27.48918389,-82.35264806
196835,"LAKE MANGONIA",NA,"FL",10.0584,NA,"navionics",227.08224309,"Drainage","manual",26.73876472,-80.07025417
212447,"LAKE MARIAM",NA,"FL",1.8288,NA,"navionics",73.4105346173,"Drainage","manual",28.01551611,-81.69349111
196859,"LAKE MARIAN",NA,"FL",4.572,NA,"navionics",1888.14534859,"Drainage","manual",27.86790556,-81.06945389
232646,"LAKE MARTIN",NA,"FL",4.2672,NA,"navionics",55.4924238698,"DrainageLk","manual",30.13745306,-85.61510694
191324,"LAKE MCCOY",NA,"FL",NA,1.8288,"http://www.orange.wateratlas.usf.edu/lake/?wbodyatlas=lake&wbodyid=140328",36.7801632754,"Isolated","manual",28.68758083,-81.49525361
207692,"LAKE MCLEOD",NA,"FL",9.7536,NA,"navionics",181.693541836,"Isolated","manual",27.97147222,-81.74772222
191956,"LAKE WASHINGTON",NA,"FL",2.7432,NA,"navionics",1215.96869327,"DrainageLk","manual",28.12029528,-80.75223778
230494,"LAKE WIMICO",NA,"FL",6.096,NA,"navionics",1632.1933542,"Drainage","manual",29.79322556,-85.14012833
185919,"LONG LAKE",NA,"FL",NA,5.1816,"http://www.orange.wateratlas.usf.edu/lake/default.asp?wbodyid=140512&wbodyatlas=lake",48.0758368269,"Drainage","manual",28.61965583,-81.46492583
211597,"LONG LAKE",NA,"FL",5.1816,NA,"navionics",5.81545384794,"Isolated","manual",28.0957825,-82.45994944
188723,"LOUGHMAN LAKE",NA,"FL",0.9144,NA,"http://fishing-app.gpsnauticalcharts.com/i-boating-fishing-web-app/fishing-marine-charts-navigation.html?title=LOUGHMAN+LAKE+boating+app#14.95/28.6368/-80.9340",264.525572921,"DrainageLk","manual",28.64102611,-80.93488917
235846,"LOWER MEMORIAL LAKE",NA,"FL",1.8288,NA,"navionics",14.0848446754,"Drainage","manual",30.45929833,-86.53197167
186812,"LOWERY, LAKE",NA,"FL",3.6576,2.1336,"http://polk.wateratlas.usf.edu/lake/default.asp?wbodyid=160271&wbodyatlas=lake",361.552273925,"Drainage","manual",28.13314694,-81.6696425
204211,"MARTHA, LAKE",NA,"FL",6.4008,NA,"navionics",34.8551212594,"Isolated","manual",28.03017056,-81.72079889
236103,"MERIAL LAKE",NA,"FL",17.6784,NA,"navionics",103.113689233,"Isolated","manual",30.38873056,-85.66674222
227455,"MERRITT'S MILL POND",NA,"FL",2.7432,NA,"http://fishing-app.gpsnauticalcharts.com/i-boating-fishing-web-app/fishing-marine-charts-navigation.html?title=MERRITTS+MILL+POND+boating+app#16/30.7580/-85.1826",110.821295344,"Drainage","manual",30.78380389,-85.15697528
189083,"NORTH GRASSHOPPER LAKE",NA,"FL",5.1816,NA,"navionics",44.5847887436,"Isolated","manual",29.14357333,-81.60642861
208700,"OKAHUMPKA, LAKE",NA,"FL",2.7432,NA,"navionics",162.439621707,"DrainageLk","manual",28.82599917,-82.00118806
207735,"PADGETT LAKE",NA,"FL",8.96112,2.83464,"http://lakepadgettisd.org/wp-content/uploads/sites/61/2015/10/Lake-Padgett-Estates-ISD-Final-Revised-Agenda-5-19-15.pdf",5.72796936053,"Isolated","manual",27.92400639,-81.60971556
208973,"PARRISH LAKE",NA,"FL",NA,1.46304,"https://wikivisually.com/wiki/Lake_Parrish",1440.35541204,"Isolated","manual",27.62810667,-82.34800056
204397,"RALEIGH, LAKE",NA,"FL",5.7912,NA,"navionics",9.58404573433,"Isolated","manual",28.10578222,-82.583545
192680,"ROUND LAKE",NA,"FL",7.3152,NA,"navionics",5.06624667511,"Isolated","manual",28.671595,-81.19189444
187128,"RUTH, LAKE",NA,"FL",3.3528,NA,"navionics",4.58390003461,"Isolated","manual",28.71492444,-81.33815333
202130,"RUTH, LAKE",NA,"FL",5.7912,NA,"navionics",6.83682327834,"Isolated","manual",28.02455611,-81.61401194
214507,"SAMPALA LAKE",NA,"FL",5.4864,NA,"http://www.myflorida.com/myflorida/cabinet/agenda18/0307/BOT030718.pdf",183.226540064,"Isolated","manual",30.385245,-83.53723639
207514,"SCOTT LAKE",NA,"FL",3.6576,NA,"navionics",101.433646112,"Headwater","manual",27.95939694,-81.93795222
202699,"SOUTH LAKE",NA,"FL",1.8288,NA,"navionics",5.67967576997,"Isolated","manual",25.72001111,-80.41781722
212477,"STARR, LAKE",NA,"FL",8.8392,NA,"navionics",41.0524083871,"Isolated","manual",27.95716667,-81.58627611
203307,"SUNSHINE LAKE",NA,"FL",6.096,NA,"http://fishing-app.gpsnauticalcharts.com/i-boating-fishing-web-app/fishing-marine-charts-navigation.html?title=SUNSHINE+LAKE+boating+app#17/28.11948/-82.52544",6.43202199438,"Drainage","manual",28.12009972,-82.52640083
210155,"SURVEYORS LAKE",NA,"FL",3.3528,NA,"navionics",113.035215737,"DrainageLk","manual",27.83806694,-81.69284222
186020,"SYLVAN, LAKE",NA,"FL",NA,6.096,"http://www.orange.wateratlas.usf.edu/upload/documents/lakes-report.pdf",5.27807308287,"Isolated","manual",28.59873111,-81.33450389
193439,"TURKEY LAKE",NA,"FL",4.2672,NA,"navionics",131.208105118,"Drainage","manual",28.49834167,-81.46518833
201885,"UNKNOWN",NA,"FL",1.524,NA,"navionics",237.674999707,"Isolated","manual",26.47910833,-81.76252222
199365,"UNKNOWN",NA,"FL",1,NA,"https://rookerybay.org/visit/plan-your-visit/120-about/rbnerr.html",32.6039695057,"Isolated","manual",26.00276222,-81.68044639
204940,"UNKNOWN",NA,"FL",6.4008,NA,"navionics",207.181452191,"Headwater","manual",27.92139806,-82.15343833
209984,"UNKNOWN",NA,"FL",1.8288,NA,"navionics",26.9536589933,"DrainageLk","manual",28.08822167,-81.93426222
203295,"UNKNOWN",NA,"FL",7.0104,NA,"navionics",6.09934847705,"Drainage","manual",28.12184306,-82.53876778
211410,"UNKNOWN",NA,"FL",5.1816,NA,"navionics",6.23221378329,"Drainage","manual",28.09910889,-82.60275083
207906,"UNKNOWN",NA,"FL",6.096,NA,"http://www.tampabay.wateratlas.usf.edu/upload/bathymetry/bath_artillery.pdf",7.53273251795,"DrainageLk","manual",28.16238806,-82.58563028
214263,"UNNAMED LAKE",NA,"FL",6.096,NA,"https://books.google.com/books?id=QoEV3shuWE8C&pg=PA206&lpg=PA206&dq=%22Suwannee+Lake%22+%22depth%22+%22florida%22&source=bl&ots=5bIRrvVZha&sig=ACfU3U2vzx94L2tpJsjYD_wDuc2m3hbktQ&hl=en&sa=X&ved=2ahUKEwik38jeodvjAhUJQ80KHZ-JCikQ6AEwA3oECAkQAQ#v=onepage&q=%22Suwannee%20Lake%22%20%22depth%22%20%22florida%22&f=false",21.9900727264,"Drainage","manual",30.30272528,-82.93144861
206555,"UNNAMED LARGE LAKE",NA,"FL",9.144,3.048,"https://www.lakehomes.com/florida/lake-van",240.956008786,"Drainage","manual",28.10673667,-81.77863056
203993,"UNNAMED LARGE LAKE",NA,"FL",3.9624,NA,"navionics",130.993501472,"Isolated","manual",28.90517194,-81.99819278
222797,"UNNAMED SMALL LAKE",NA,"FL",3.9624,NA,"navionics",3.89588944636,"Isolated","manual",30.55800083,-84.25127389
193051,"WEST LAKE",NA,"FL",10.668,NA,"navionics",844.089250475,"Drainage","manual",25.21101778,-80.83633472
232002,"WHITE WESTERN LAKE",NA,"FL",9.144,NA,"navionics",74.3849084697,"Isolated","manual",30.40413972,-85.706065
187652,"WINDER, LAKE",NA,"FL",3.048,NA,"navionics",591.087317867,"DrainageLk","manual",28.26149111,-80.84683972
185378,"WOODRUFF, LAKE",NA,"FL",2.1336,NA,"navionics",905.04628897,"DrainageLk","manual",29.08465306,-81.40505611
207558,"BANANA LAKE",NA,"FL",2.1336,NA,"navionics",105.204809419,"DrainageLk","manual",27.97517278,-81.90288194
208738,"BEULAH, LAKE",NA,"FL",8.2296,NA,"navionics",7.38469436625,"Isolated","manual",28.03991389,-81.96893
207744,"BLUE LAKE",NA,"FL",10.668,NA,"navionics",14.6307746053,"DrainageLk","manual",27.43417222,-81.5123775
210126,"DINNER LAKE",NA,"FL",6.031992,4.401312,"http://www.polk.wateratlas.usf.edu/upload/bathymetry/Dinner.pdf",8.20625589633,"Isolated","manual",27.99364861,-81.78692833
206520,"FLORENCE LAKE",NA,"FL",2.7432,NA,"navionics",29.5520358307,"Headwater","manual",28.00459028,-81.68729306
211230,"LAKE ALFRED",NA,"FL",4.2672,1.524,"http://www.polk.wateratlas.usf.edu/lake/?wbodyid=160394&wbodyatlas=lake",273.754793917,"Drainage","manual",28.09517528,-81.73441806
212474,"LAKE ALTAMAHA",NA,"FL",5.7912,NA,"navionics",3.08538665611,"Isolated","manual",27.89123083,-81.59867611
212469,"LAKE LEE",NA,"FL",2.7432,NA,"navionics",2.80753846311,"Isolated","manual",28.04874917,-81.62602361
212468,"LAKE MENZIE",NA,"FL",5.7912,NA,"navionics",8.31374581758,"Isolated","manual",28.01955056,-81.61836167
196854,"LAKE NONA",NA,"FL",8.5344,NA,"navionics",237.709554185,"Isolated","manual",28.40867528,-81.27832222
208950,"LAKE TRACY",NA,"FL",7.9248,1.524,"http://www.polk.wateratlas.usf.edu/lake/default.asp?wbodyid=160370&wbodyatlas=lake",40.4023074943,"Headwater","manual",28.11039222,-81.63211972
206591,"SALT LAKE",NA,"FL",0.6096,NA,"navionics",29.557926728,"Isolated","manual",28.15676444,-82.73028222
203116,"UNKNOWN",NA,"FL",3.9624,NA,"navionics",1.57055194415,"Drainage","manual",26.58996417,-80.07497806
189242,"UNKNOWN SMALL LAKE",NA,"FL",7.9248,NA,"navionics",5.78720125582,"Drainage","manual",28.56656972,-81.38563611
186755,"UNNAMED SMALL LAKE",NA,"FL",7.0104,NA,"navionics",2.50190085039,"Drainage","manual",28.49039972,-81.77531694
207980,"UNNAMED SMALL LAKE",NA,"FL",3.3528,NA,"navionics",5.83428986865,"Isolated","manual",27.87821417,-82.51622806
211570,"UNNAMED SMALL LAKE",NA,"FL",4.572,NA,"navionics",2.39760151387,"DrainageLk","manual",28.10090944,-82.4686875
208985,"WALSINGHAM RESERVIOR",NA,"FL",6.4008,NA,"navionics",34.3862557369,"Drainage","manual",27.87952833,-82.80887222
235199,"WRIGHT BASIN",NA,"FL",1.2192,NA,"navionics",65.6670693539,"Drainage","manual",30.63882361,-87.00776
188390,"Lake Catherine",NA,"FL",7.0104,NA,"navionics",6.12081808433,"Isolated","manual",28.6419,-81.1257
189281,"Fairy lake",NA,"FL",4.8768,NA,"navionics",20.2375587187,"Isolated","manual",28.6877,-81.3349
188251,"Garden Lake",NA,"FL",2.7432,NA,"navionics",8.6960085195,"Drainage","manual",28.6296,-81.2821
191460,"Kewanee",NA,"FL",5.7912,NA,"navionics",1.73022987023,"Drainage","manual",28.6421,-81.3324
188187,"Lake Mobile",NA,"FL",4.572,NA,"navionics",9.82790411775,"Isolated","manual",28.6713,-81.3536
184850,"Lake Markham",NA,"FL",2.1336,NA,"navionics",28.5408027324,"Drainage","manual",28.7979,-81.3941
192505,"Yankee Lake",NA,"FL",1.8288,NA,"navionics",19.4857971256,"Drainage","manual",28.8163,-81.3879
170850,"Tallulah River - Near Clayton",NA,"GA",36.576,NA,"https://en.wikipedia.org/wiki/Lake_Burton_(Georgia)",1022.95656753,"Drainage","manual",34.8352,-83.5538
170065,"Lake Hartwell At U.S. Highway 123",NA,"GA",6.096,NA,"http://fishing-app.gpsnauticalcharts.com/i-boating-fishing-web-app/fishing-marine-charts-navigation.html#16.94/34.61162/-83.22940",7299.16079116,"DrainageLk","manual",34.6111,-83.2283
170854,"Lake HARTwell- Log Creek At Highway 51",NA,"GA",18.288,NA,"http://fishing-app.gpsnauticalcharts.com/i-boating-fishing-web-app/fishing-marine-charts-navigation.html#17.94/34.38535/-82.92824",6296.70094361,"DrainageLk","manual",34.3847,-82.9286
170064,"Lake Russell - Beaver Dam Creek At Pearl M. Road",NA,"GA",19.812,NA,"http://fishing-app.gpsnauticalcharts.com/i-boating-fishing-web-app/fishing-marine-charts-navigation.html#19.93/34.09459/-82.72866",9957.98475442,"DrainageLk","manual",34.0944,-82.7311
171719,"Clarks Hill Lake - Savannah River At Russell Creek",NA,"GA",9.144,NA,"http://fishing-app.gpsnauticalcharts.com/i-boating-fishing-web-app/fishing-marine-charts-navigation.html#15.95/33.9921/-82.5840",16517.7893364,"DrainageLk","manual",33.9903,-82.5819
169272,"Clarks Hill Lake - Little River At Highway 47",NA,"GA",33.528,NA,"http://fishing-app.gpsnauticalcharts.com/i-boating-fishing-web-app/fishing-marine-charts-navigation.html#17.93/33.69776/-82.31969",10384.186886,"DrainageLk","manual",33.6927,-82.3388
172592,"Lake Oconee At Interstate 20",NA,"GA",9.144,NA,"http://fishing-app.gpsnauticalcharts.com/i-boating-fishing-web-app/fishing-marine-charts-navigation.html#13.95/33.5368/-83.2725",7056.06837217,"DrainageLk","manual",33.5356,-83.27
182817,"Lake Sinclair - Oconee River At Crooked Creek",NA,"GA",12.192,NA,"http://fishing-app.gpsnauticalcharts.com/i-boating-fishing-web-app/fishing-marine-charts-navigation.html#14.95/33.2617/-83.2452",5330.90636191,"DrainageLk","manual",33.2608,-83.2478
181374,"`Yellow River - Georgia Highway 212 near Stewart, Georgia`",NA,"GA",28.6512,NA,"https://en.wikipedia.org/wiki/Lake_Jackson_(Georgia)",1385.27373446,"DrainageLk","manual",33.3682,-83.8633
175462,"Lake Juliette - Midlake",NA,"GA",29.2608,NA,"http://fishing-app.gpsnauticalcharts.com/i-boating-fishing-web-app/fishing-marine-charts-navigation.html#17.93/33.03293/-83.76332",1352.2786072,"DrainageLk","manual",33.0464,-83.8106
181375,"Lake Tobesofkee 200 Meters DownRiver/Stream Tobesofkee Creek",NA,"GA",7.4676,NA,"http://fishing-app.gpsnauticalcharts.com/i-boating-fishing-web-app/fishing-marine-charts-navigation.html#18.01/32.82271/-83.80085",622.664724951,"DrainageLk","manual",32.8506,-83.8297
226351,"Warren Slough - Lake Blackshear",NA,"GA",2.7432,NA,"http://fishing-app.gpsnauticalcharts.com/i-boating-fishing-web-app/fishing-marine-charts-navigation.html#16.01/31.97932/-83.94564",37.8582736645,"Drainage","manual",31.9797,-83.9453
225409,"Lake Blackshear - Midlake",NA,"GA",4.7244,NA,"http://fishing-app.gpsnauticalcharts.com/i-boating-fishing-web-app/fishing-marine-charts-navigation.html#19/31.93672/-83.93097",3230.96555732,"DrainageLk","manual",31.9665,-83.9342
225408,"Flint River Reservoir - Dam Forebay",NA,"GA",6.096,5.1816,"https://en.wikipedia.org/wiki/Lake_Chehaw",249.702003778,"DrainageLk","manual",31.6033,-84.1365
229465,"Lake Seminole-0.7 Mile Ne Horseshoe Bend Boat Ramp",NA,"GA",9.144,3.048,"https://en.wikipedia.org/wiki/Lake_Seminole",4249.45209457,"DrainageLk","manual",30.8492,-84.6464
230497,"Lake Lanier - Clarks Bridge (Hwy 284)",NA,"GA",47.5488,NA,"http://fishing-app.gpsnauticalcharts.com/i-boating-fishing-web-app/fishing-marine-charts-navigation.html#16.98/34.16390/-84.07189",15496.5330512,"DrainageLk","manual",34.3497,-83.7944
226442,"West Point Lake - New River Embayment",NA,"GA",24.6888,NA,"http://fishing-app.gpsnauticalcharts.com/i-boating-fishing-web-app/fishing-marine-charts-navigation.html#15.99/32.9287/-85.1899",9029.69624793,"DrainageLk","manual",33.1961,-85.0444
227457,"Lake Harding - Upper Lake (Chattahoochee Arm)",NA,"GA",33.8328,9.7536,"https://en.wikipedia.org/wiki/Lake_Harding",2014.54701247,"DrainageLk","manual",32.7379,-85.1125
227456,"Goat Rock Lake - Dam Forebay",NA,"GA",18.288,NA,"https://en.wikipedia.org/wiki/Goat_Rock_Lake",392.948541781,"DrainageLk","manual",32.6112,-85.0794
228443,"Lake Oliver - Dam Forebay",NA,"GA",15.24,NA,"https://en.wikipedia.org/wiki/Lake_Oliver",729.486028754,"DrainageLk","manual",32.516,-85.0009
236203,"`Carters Lake (CR1) - Upper Lake, Coosawattee Arm`",NA,"GA",137.16,60.96,"https://en.wikipedia.org/wiki/Carters_Lake_(Blue_Ridge_Mountains)",1202.60577952,"DrainageLk","manual",34.6209,-84.6212
241077,"Cossawattee River UpRiver/Stream From Carters Dam",NA,"GA",4.2672,NA,"http://fishing-app.gpsnauticalcharts.com/i-boating-fishing-web-app/fishing-marine-charts-navigation.html#15.98/34.6013/-84.6860",329.844375578,"DrainageLk","manual",34.6108,-84.6758
273708,"Lake Chatuge LMP 12 at State Line  (aka Hiawassee River)",NA,"GA",28.0416,NA,"http://fishing-app.gpsnauticalcharts.com/i-boating-fishing-web-app/fishing-marine-charts-navigation.html#14.98/34.9744/-83.7768",2575.56257142,"Drainage","manual",34.9833,-83.7886
273758,"Lake Nottely (LMP15A) at Reece Creek",NA,"GA",30.48,NA,"http://fishing-app.gpsnauticalcharts.com/i-boating-fishing-web-app/fishing-marine-charts-navigation.html#14.99/34.9227/-84.0760",1480.33724872,"DrainageLk","manual",34.9115,-84.0506
172588,"Randy Pointer Lake",NA,"GA",17.3736,NA,"http://fishing-app.gpsnauticalcharts.com/i-boating-fishing-web-app/fishing-marine-charts-navigation.html?title=Randy+Poynter+Reservoir%28Parkers+Lake%29+boating+app#20/33.73250/-83.93814",233.922117129,"DrainageLk","manual",33.7403,-83.9377
180443,"Lake Oconee At Highway 44",NA,"GA",27.432,NA,"http://fishing-app.gpsnauticalcharts.com/i-boating-fishing-web-app/fishing-marine-charts-navigation.html#15.93/33.3676/-83.1706",5.95401477569,"Drainage","manual",33.4275,-83.2633
228441,"SPRING CREEK AT KNIGHTS REST NEAR BAINBRIDGE, GA",NA,"GA",6.096,NA,"http://fishing-app.gpsnauticalcharts.com/i-boating-fishing-web-app/fishing-marine-charts-navigation.html#16.03/30.82326/-84.78503",2909.85057041,"DrainageLk","manual",30.8305556,-84.7763889
460180,"Chatcolet Lake - 0.4 miles northwest of Rocky Point (USGS site 472120116451000)",NA,"ID",11,NA,"http://fishing-app.gpsnauticalcharts.com/i-boating-fishing-web-app/fishing-marine-charts-navigation.html?title=The+Gap%28Chatcolet+Lake%2C+Benewah+Lake%2C+Hidden+Lake%2C+Round+Lake%29+boating+app#13/47.3650/-116.7350",1194.8641565,"DrainageLk","manual",47.35841,-116.7484
458728,"EAST CAUSEWAY, LITTORAL ZONE, COEUR D'ALENE LAKE",NA,"ID",6,4,"http://fishing-app.gpsnauticalcharts.com/i-boating-fishing-web-app/fishing-marine-charts-navigation.html?title=The+Gap%28Chatcolet+Lake%2C+Benewah+Lake%2C+Hidden+Lake%2C+Round+Lake%29+boating+app#13/47.3798/-116.7340",234.058903464,"DrainageLk","manual",47.3788889,-116.7425
458686,"BLACK LAKE NR HARRISON, ID",NA,"ID",7.6,NA,"http://fishing-app.gpsnauticalcharts.com/i-boating-fishing-web-app/fishing-marine-charts-navigation.html?title=Black+Lake+boating+app#14/47.4532/-116.6603",153.929173251,"Drainage","manual",47.4487977,-116.6621195
457596,"ANDERSON LAKE NR HARRISON, ID",NA,"ID",4.6,NA,"http://fishing-app.gpsnauticalcharts.com/i-boating-fishing-web-app/fishing-marine-charts-navigation.html?title=Anderson+Lake+boating+app#14/47.4700/-116.7500",203.452531073,"Drainage","manual",47.466573,-116.7482339
459884,"MEDICINE LAKE NR HARRISON, ID",NA,"ID",4.6,NA,"http://fishing-app.gpsnauticalcharts.com/i-boating-fishing-web-app/fishing-marine-charts-navigation.html?title=Medicine+Lake+boating+app#15/47.4686/-116.5843",82.482492923,"Headwater","manual",47.4693559,-116.5843402
458316,"SWAN LAKE NR HARRISON, ID",NA,"ID",4.6,NA,"http://fishing-app.gpsnauticalcharts.com/i-boating-fishing-web-app/fishing-marine-charts-navigation.html?title=Swan+Lake+boating+app#14/47.4700/-116.6350",270.786698001,"Drainage","manual",47.4707432,-116.6371196
458370,"THOMPSON LAKE NR HARRISON, ID",NA,"ID",7.6,NA,"http://fishing-app.gpsnauticalcharts.com/i-boating-fishing-web-app/fishing-marine-charts-navigation.html?title=Thompson+Lake+boating+app#14.99/47.4913/-116.7239",39.3275712325,"DrainageLk","manual",47.490463,-116.7218453
457654,"BULL RUN LAKE NR ROSE LAKE, ID",NA,"ID",83.2104,29.8704,"https://pubs.usgs.gov/wri/1996/4064/report.pdf",41.0706694186,"Drainage","manual",47.5290811,-116.4760063
459513,"ROSE LAKE NR ROSE LAKE, ID",NA,"ID",9.1,NA,"http://fishing-app.gpsnauticalcharts.com/i-boating-fishing-web-app/fishing-marine-charts-navigation.html?title=Rose+Lake+boating+app#14/44.0650/-85.3850",143.169094527,"Headwater","manual",47.5521363,-116.467674
457977,"PEND OREILLE LAKE NEAR BAYVIEW, ID",NA,"ID",351,NA,"https://en.wikipedia.org/wiki/Lake_Pend_Oreille",37540.4366547,"DrainageLk","manual",47.9590683,-116.5310293
463793,"MUD LAKE NR TERRETON ID",NA,"ID",1.5,NA,"https://en.wikipedia.org/wiki/Mud_Lake_(Jefferson_County,_Idaho)",1261.72406626,"DrainageLk","manual",43.8913889,-112.3580556
372121,"CLINTON LAKE",NA,"KS",16.764,2.1336,"https://en.wikipedia.org/wiki/Clinton_Lake_(Kansas)",2970.84228411,"DrainageLk","manual",38.921,-95.338
131190,"LA CYGNE LAKE",NA,"KS",12.4968,NA,"http://fishing-app.gpsnauticalcharts.com/i-boating-fishing-web-app/fishing-marine-charts-navigation.html?title=Swan+Lake+boating+app#13.21/38.3533/-94.6551",970.004378442,"DrainageLk","manual",38.341,-94.654
384858,"CHANUTE SANTA FE LAKE",NA,"KS",8.50392,1.31064,"http://www.kdheks.gov/tmdl/ne/ChanuteE.pdf",16.6674670599,"Headwater","manual",37.657,-95.454
367485,"PONY CREEK LAKE",NA,"KS",10,3.4,"http://www.kdheks.gov/tmdl/mo/PonyCrE_2007.pdf",60.198732875,"Drainage","manual",39.947,-95.777
383119,"EDNA CITY LAKE",NA,"KS",6.858,NA,"http://fishing-app.gpsnauticalcharts.com/i-boating-fishing-web-app/fishing-marine-charts-navigation.html#17.55/37.03604/-95.39363",5.58485287102,"Isolated","manual",37.036,-95.394
382241,"POLK DANIELS STATE FISHING LAKE",NA,"KS",5.5,NA,"http://www.kdheks.gov/befs/download/Annual_Lake_Reports/Lake_Report_2017.pdf",26.2621038995,"DrainageLk","manual",37.461,-96.227
112909,"HILLSDALE LAKE",NA,"KS",14,5.7,"http://www.kdheks.gov/tmdl/2013/Hillsdale.pdf",1757.18783419,"DrainageLk","manual",38.659,-94.905
374864,"LYON CO. STATE FISHING LAKE",NA,"KS",NA,10.3632,"https://ksoutdoors.com/Fishing/Where-to-Fish-in-Kansas/Fishing-Locations-Public-Waters/Southeast-Region/Lyon-State-Fishing-Lake",53.264042739,"Isolated","manual",38.546,-96.058
385675,"BIG HILL LAKE TIMBER HILL DOCK",NA,"KS",NA,16.764,"http://fishing-app.gpsnauticalcharts.com/i-boating-fishing-web-app/fishing-marine-charts-navigation.html#15.56/37.2700/-95.4626",447.2918314,"Drainage","manual",37.29192,-95.4521
369586,"HERINGTON RESERVOIR",NA,"KS",9,3.2,"http://www.kdheks.gov/tmdl/ss/HeringtonResAtr.pdf",162.852610937,"Drainage","manual",38.662,-97.008
385060,"TORONTO LAKE",NA,"KS",5.5,2.1,"http://www.kdheks.gov/tmdl/ve/Toronto_TMDL.pdf",929.800871973,"DrainageLk","manual",37.744,-95.926
382706,"COUNCIL GROVE LAKE",NA,"KS",11,4.4,"http://www.kdheks.gov/tmdl/ne/CouncilGroveTMDL.pdf",1173.25505758,"DrainageLk","manual",38.684,-96.504
374604,"POMONA LAKE",NA,"KS",10,NA,"http://www.kdheks.gov/befs/download/Annual_Lake_Reports/Lake_Report_2017.pdf",1530.19868248,"DrainageLk","manual",38.653,-95.561
369702,"MCPHERSON CO. STATE FISHING LAKE",NA,"KS",5.9436,NA,"http://fishing-app.gpsnauticalcharts.com/i-boating-fishing-web-app/fishing-marine-charts-navigation.html#18.05/38.48162/-97.46819",12.0667743546,"Headwater","manual",38.481,-97.469
384574,"SEDAN CITY SOUTH LAKE",NA,"KS",6.4008,NA,"http://fishing-app.gpsnauticalcharts.com/i-boating-fishing-web-app/fishing-marine-charts-navigation.html#18.01/37.15111/-96.20733",26.2358918234,"Isolated","manual",37.151,-96.208
373648,"LONE STAR LAKE",NA,"KS",11,NA,"http://www.kdheks.gov/befs/download/Annual_Lake_Reports/Lake_Report_2017.pdf",71.8508236625,"Headwater","manual",38.84,-95.38
377029,"HARVEY CO. WEST PARK LAKE",NA,"KS",2,NA,"http://www.kdheks.gov/befs/download/Annual_Lake_Reports/Lake_Report_2000.pdf",5.08978710391,"Isolated","manual",38.074,-97.585
384430,"WOODSON CO. STATE FISHING LAKE",NA,"KS",14.0208,NA,"http://fishing-app.gpsnauticalcharts.com/i-boating-fishing-web-app/fishing-marine-charts-navigation.html#18.01/37.78912/-95.84276",48.8341439283,"Headwater","manual",37.789,-95.843
378136,"AUGUSTA CITY LAKE",NA,"KS",5.4864,NA,"http://fishing-app.gpsnauticalcharts.com/i-boating-fishing-web-app/fishing-marine-charts-navigation.html?title=Augusta+City+Lake+boating+app#16.99/37.70453/-96.97655",74.2845454706,"Isolated","manual",37.699,-96.982
370141,"KIRWIN LAKE",NA,"KS",14.99616,6.096,"http://www.kdheks.gov/tmdl/so/KirwinE.pdf",1279.17821289,"Drainage","manual",39.662,-99.132
378188,"HAMILTON CO. STATE FISHING LAKE",NA,"KS",2,0.8,"http://www.kdheks.gov/tmdl/2012/HamiltonCoSFL_TMDL.pdf",18.2357133836,"Isolated","manual",38.029,-101.82
65334,"LAKE CRAWFORD",NA,"KS",16,4.7,"http://www.kdheks.gov/tmdl/mc/Lake_Crawford_Eutro_TMDL.pdf",59.1556277039,"Isolated","manual",37.644,-94.809
376907,"CHENEY LAKE",NA,"KS",12.5,5.1,"http://www.kdheks.gov/tmdl/2015/Cheney_Eu.pdf",3951.89978082,"DrainageLk","manual",37.729,-97.803
372469,"SHAWNEE CO. STATE FISHING LAKE",NA,"KS",8.5344,NA,"http://fishing-app.gpsnauticalcharts.com/i-boating-fishing-web-app/fishing-marine-charts-navigation.html#18.01/39.20121/-95.80433",49.6941819443,"Headwater","manual",39.201,-95.804
369859,"SCOTT STATE FISHING LAKE",NA,"KS",4.572,1.88976,"http://www.kdheks.gov/tmdl/ss/LakeScottE.pdf",44.6538830216,"Isolated","manual",38.691,-100.924
69434,"SOUTH LAKE PARK",NA,"KS",NA,1.3,"http://www.kdheks.gov/tmdl/mo/SouthParkE.pdf",1.62751355229,"Isolated","manual",38.97219,-94.67353
373639,"WATERWORK'S LAKE",NA,"KS",3,NA,"http://www.kdheks.gov/tmdl/klr/waterworks.pdf",4.0020273958,"Isolated","manual",38.875,-94.805
374132,"TUTTLE CREEK LAKE",NA,"KS",15.24,NA,"https://web.archive.org/web/20070927202821/http://www.kdwp.state.ks.us/fishing/where_to_fish_in_kansas/fishing_locations_public_waters/region_2/tuttle_creek_reservoir",4850.28473262,"DrainageLk","manual",39.26,-96.596
385445,"THAYER OLD CITY LAKE",NA,"KS",7.3152,NA,"http://fishing-app.gpsnauticalcharts.com/i-boating-fishing-web-app/fishing-marine-charts-navigation.html?title=Thayer+New+City+Lake+boating+app#17.99/37.48195/-95.48798",9.59996956427,"Isolated","manual",37.4825,-95.4871
119100,"MIOLA LAKE",NA,"KS",8.5344,NA,"http://fishing-app.gpsnauticalcharts.com/i-boating-fishing-web-app/fishing-marine-charts-navigation.html#16.99/38.58500/-94.84257",74.7522709479,"Headwater","manual",38.585,-94.843
385035,"MINED LAND LAKE 17",NA,"KS",14.99616,7.9248,"http://www.kdheks.gov/tmdl/ne/MinedLandSO4.pdf",7.0694022336,"Isolated","manual",37.294,-94.903
371817,"WASHINGTON CO. STATE FISHING LAKE",NA,"KS",4,NA,"http://www.kdheks.gov/befs/download/Annual_Lake_Reports/Lake_Report_2017.pdf",24.3207643824,"Isolated","manual",39.924,-97.117
370560,"KANOPOLIS LAKE",NA,"KS",9.99744,3.99288,"http://www.kdheks.gov/tmdl/ss/KanopolisE.pdf",1400.05316541,"DrainageLk","manual",38.617,-97.974
385674,"JOHN REDMOND LAKE",NA,"KS",3.9624,1.49352,"http://www.kdheks.gov/tmdl/ne/RedmondSILT.pdf",3337.24939578,"DrainageLk","manual",38.238,-95.774
367830,"BELLEVILLE CITY LAKE",NA,"KS",3,NA,"http://www.kdheks.gov/tmdl/klr/bellevilleE.pdf",8.71803338156,"Isolated","manual",39.829,-97.619
378571,"HORSESHOE LAKE",NA,"KS",6,NA,"http://www.kdheks.gov/tmdl/la/HorseshoeE.pdf",2.68129429933,"Isolated","manual",37.7216,-97.41353
374382,"POTTAWATOMIE STATE FISHING LAKE #2",NA,"KS",9.144,NA,"https://ksoutdoors.com/Fishing/Where-to-Fish-in-Kansas/Fishing-Locations-Public-Waters/Northeast-Region/Pottawatomie-No.-2",28.7220759751,"Isolated","manual",39.229,-96.526
378237,"VETERAN'S LAKE",NA,"KS",3.81,NA,"http://fishing-app.gpsnauticalcharts.com/i-boating-fishing-web-app/fishing-marine-charts-navigation.html#18.92/38.36986/-98.79489",5.18889073591,"Isolated","manual",38.3708,-98.7952
382583,"ALTAMONT CITY MAIN LAKE",NA,"KS",4,1.7,"http://www.kdheks.gov/tmdl/ne/AltamontE.pdf",8.70205109374,"Isolated","manual",37.14,-95.288
381134,"WELLINGTON LAKE",NA,"KS",7,NA,"http://www.kdheks.gov/befs/download/Annual_Lake_Reports/Lake_Report_2017.pdf",212.473696291,"Isolated","manual",37.214,-97.526
382704,"ELK CITY LAKE",NA,"KS",8,3.2,"http://www.kdheks.gov/tmdl/ve/Elk_City_TMDL.pdf",1379.55101523,"DrainageLk","manual",37.275,-95.788
370119,"LAKEWOOD PARK LAKE",NA,"KS",4,1.7,"http://www.kdheks.gov/tmdl/ss/LakewoodE.pdf",4.46344668256,"Isolated","manual",38.847,-97.588
369331,"MILFORD LAKE",NA,"KS",16,7.4,"http://www.kdheks.gov/tmdl/2013/Milford_TMDL.pdf",5911.3867927,"DrainageLk","manual",39.081,-96.903
373647,"LAKE SHAWNEE",NA,"KS",14,4.3,"http://www.kdheks.gov/tmdl/2011/Lake_Shawnee_TMDL_Eu.pdf",154.720517997,"Headwater","manual",39.014,-95.628
372628,"PERRY LAKE",NA,"KS",16,6.5,"http://www.kdheks.gov/tmdl/2011/Perry_Eutro_TMDL.pdf",4357.95888366,"DrainageLk","manual",39.119,-95.427
371150,"LEAVENWORTH CO. STATE FISHING LAKE",NA,"KS",13.1064,NA,"http://fishing-app.gpsnauticalcharts.com/i-boating-fishing-web-app/fishing-marine-charts-navigation.html#16.99/39.12370/-95.15202",61.4645428972,"Headwater","manual",39.123,-95.153
378789,"MEADE LAKE",NA,"KS",3.5,NA,"http://www.kdheks.gov/tmdl/ci/MeadeE.pdf",27.0581523035,"Isolated","manual",37.166,-100.433
381189,"ANTHONY CITY LAKE",NA,"KS",4,1.8,"http://www.kdheks.gov/tmdl/la/Lake_Anthony_siltation_TMDL_EPA2007updated.pdf",32.3069188206,"Isolated","manual",37.174,-98.052
385031,"MINED LAND LAKE 42",NA,"KS",0.09144,0.03048,"http://www.kdheks.gov/tmdl/ne/MinedLandSO4.pdf",1.55553271538,"Isolated","manual",37.262,-94.924
130153,"BOURBON CO. STATE FISHING LAKE",NA,"KS",10,3.4,"http://www.kdheks.gov/tmdl/mc/BourbonCntySFL_EbundleTMDL.pdf",37.5746471436,"Isolated","manual",37.797,-95.065
100533,"PLAYTER'S LAKE",NA,"KS",2.01168,0.79248,"http://www.kdheks.gov/tmdl/ne/PlayterE.pdf",1.47449438689,"Isolated","manual",37.4029,-94.7133
383241,"MINED LAND LAKE 44",NA,"KS",13.50264,7.13232,"http://www.kdheks.gov/tmdl/ne/MinedLandSO4.pdf",18.2300771687,"Isolated","manual",37.27,-94.924
370302,"ANTELOPE LAKE",NA,"KS",3.2004,NA,"http://fishing-app.gpsnauticalcharts.com/i-boating-fishing-web-app/fishing-marine-charts-navigation.html#16.02/39.37403/-100.11187",27.2481431079,"Drainage","manual",39.374,-100.111
374603,"CEDAR VALLEY LAKE",NA,"KS",9.9,3.4,"http://www.kdheks.gov/tmdl/2013/Cedar_Cr_Lake_TMDL_Eu_Silt.pdf",126.203166441,"Drainage","manual",38.256,-95.312
371149,"DOUGLAS CO. STATE FISHING LAKE",NA,"KS",9,NA,"http://www.kdheks.gov/befs/download/Annual_Lake_Reports/Lake_Report_2017.pdf",72.098758079,"Headwater","manual",38.804,-95.158
48733,"XENIA LAKE",NA,"KS",3.9624,NA,"http://www.kdheks.gov/befs/download/Annual_Lake_Reports/Lake_Report_2016.pdf",24.5774914884,"Isolated","manual",37.97138,-94.98389
375025,"OSAGE CO. STATE FISHING LAKE",NA,"KS",10,NA,"http://www.kdheks.gov/befs/download/Annual_Lake_Reports/Lake_Report_2017.pdf",53.6373704858,"Headwater","manual",38.763,-95.673
49745,"ATCHISON CO. STATE FISHING LAKE",NA,"KS",10,NA,"http://www.kdheks.gov/tmdl/mo/AtchisonCoSFL_2007.pdf",24.9608733196,"Drainage","manual",39.636,-95.172
382118,"FALL RIVER LAKE",NA,"KS",7,3,"http://www.kdheks.gov/tmdl/ve/Fall_River_TMDL.pdf",950.952142769,"DrainageLk","manual",37.653,-96.065
386204,"MINED LAND LAKE 23",NA,"KS",4.99872,2.80416,"http://www.kdheks.gov/tmdl/ne/MinedLandSO4.pdf",12.923326963,"Isolated","manual",37.233,-94.982
373117,"GARDNER LAKE",NA,"KS",11,NA,"http://www.kdheks.gov/tmdl/klr/GardnerDO.pdf",43.1702751988,"Isolated","manual",38.853,-94.933
385764,"EUREKA LAKE",NA,"KS",8.5344,NA,"http://fishing-app.gpsnauticalcharts.com/i-boating-fishing-web-app/fishing-marine-charts-navigation.html#16.98/37.89762/-96.29108
http://www.kdheks.gov/tmdl/ve/EurekaCityLake.pdf",102.145974224,"Drainage","manual",37.898,-96.291
377747,"PRATT COUNTY LAKE",NA,"KS",2.5,NA,"http://www.kdheks.gov/tmdl/la/PrattE.pdf",19.4471213673,"Headwater","manual",37.6298,-98.6813
385332,"NEW YATES CENTER LAKE",NA,"KS",11.2776,NA,"http://fishing-app.gpsnauticalcharts.com/i-boating-fishing-web-app/fishing-marine-charts-navigation.html#18.03/37.83426/-95.80435",73.7941026418,"Headwater","manual",37.834,-95.803
139425,"TROY FAIR LAKE",NA,"KS",NA,1.7,"http://www.kdheks.gov/tmdl/mo/TroyFairE.pdf",1.5423299615,"Drainage","manual",39.7886,-95.1005
70400,"LANSING CITY LAKE",NA,"KS",NA,1.7,"http://www.kdheks.gov/tmdl/mo/LansingE.pdf",1.10454069974,"Isolated","manual",39.244,-94.883
58087,"PITTSBURG COLLEGE LAKE",NA,"KS",2.01168,0.79248,"http://www.kdheks.gov/tmdl/ne/PittsburgE.pdf",1.05313941132,"Isolated","manual",37.3903,-94.6983
371178,"CEDAR LAKE",NA,"KS",4.2672,1.88976,"http://www.kdheks.gov/tmdl/klr/new_lake_olathe.pdf",24.7394302944,"Drainage","manual",38.847,-94.847
383869,"MARION LAKE",NA,"KS",9,3.4,"http://www.kdheks.gov/befs/download/Annual_Lake_Reports/Lake_Report_2017.pdf",2561.1706975,"DrainageLk","manual",38.371,-97.087
386762,"MINED LAND LAKE 30",NA,"KS",18.01368,9.4488,"https://ksoutdoors.com/Fishing/Where-to-Fish-in-Kansas/Fishing-Locations-Public-Waters/Southeast-Region/Mined-Land-Wildlife-Area

http://www.kdheks.gov/tmdl/ne/MinedLandSO4.pdf",9.80833312996,"Isolated","manual",37.222,-95.025
377413,"WINFIELD CITY LAKE",NA,"KS",12.5,NA,"http://www.kdheks.gov/tmdl/wa/WinfieldCityLake.pdf",396.246460827,"Drainage","manual",37.353,-96.892
373129,"CENTRALIA LAKE",NA,"KS",12.5,NA,"http://www.kdheks.gov/tmdl/klr/centraliaE.pdf",154.816758871,"Headwater","manual",39.70444,-96.15333
373436,"LAKE WABAUNSEE",NA,"KS",11.5,NA,"http://www.kdheks.gov/befs/download/Annual_Lake_Reports/Lake_Report_2017.pdf",84.7819909723,"Headwater","manual",38.866,-96.196
369900,"PLAINVILLE TOWNSHIP LAKE",NA,"KS",2.01168,0.79248,"http://www.kdheks.gov/tmdl/ss/PlainvilleE.pdf",36.4959104765,"Isolated","manual",39.22525,-99.31931
378728,"POINT OF ROCKS LAKE",NA,"KS",2,NA,"http://www.kdheks.gov/befs/download/Annual_Lake_Reports/Lake_Report_2002.pdf",1.77047043316,"Isolated","manual",37.116,-101.912
374703,"LEBO CITY LAKE",NA,"KS",NA,0.8,"http://www.kdheks.gov/tmdl/mc/LeboE.pdf",24.6266424241,"Headwater","manual",38.425,-95.887
378748,"LAKE COLDWATER",NA,"KS",6.5,2.5,"http://www.kdheks.gov/tmdl/2012/Lake_Coldwater_TMDL_Eu.pdf",94.4453139123,"Drainage","manual",37.245,-99.35
374847,"SPRING CREEK PARK LAKE",NA,"KS",NA,0.8,"http://www.kdheks.gov/tmdl/mc/SpringE.pdf",3.60553833994,"Headwater","manual",38.754,-95.162
370278,"WEBSTER LAKE",NA,"KS",12.00912,4.8768,"http://www.kdheks.gov/tmdl/so/WebsterE.pdf",383.768175719,"DrainageLk","manual",39.403,-99.427
369590,"SMOKY HILL GARDEN LAKE",NA,"KS",2.98704,1.31064,"http://www.kdheks.gov/tmdl/ss/SHGardensE.pdf",5.18698723035,"Isolated","manual",39.1876,-101.757
372914,"ALMA CITY LAKE",NA,"KS",12.4,NA,"http://www.kdheks.gov/befs/download/Annual_Lake_Reports/Lake_Report_2016.pdf",10.0058080965,"Isolated","manual",38.979,-96.262
372068,"LAKE DABINAWA",NA,"KS",7.65048,NA,"http://cpcb.ku.edu/media/uploads/resources/lakedabinawa8x11.pdf",31.81350292,"Drainage","manual",39.132,-95.24
377971,"HODGEMAN CO. STATE FISHING LAKE",NA,"KS",5.5,NA,"http://www.kdheks.gov/befs/download/Annual_Lake_Reports/Lake_Report_2016.pdf",1.38971126591,"Isolated","manual",38.048,-99.825
370111,"SALINE CO. STATE FISHING LAKE",NA,"KS",3.6576,NA,"https://www.google.com/search?rlz=1C1CHBF_enUS810US810&biw=1458&bih=762&ei=p-o5XZHjMoONtAbI74nACw&q=SALINE+COUNTY.+STATE+FISHING+LAKE+kansas+report&oq=SALINE+COUNTY.+STATE+FISHING+LAKE+kansas+report&gs_l=psy-ab.3..33i160l2.1266.8250..8380...3.0..1.112.1554.13j4......0....1..gws-wiz.......0i71j35i302i39j33i299.XkoPLNicon0&ved=0ahUKEwjR0r3mz9DjAhWDBs0KHch3Arg4ChDh1QMICg&uact=5",8.95059690616,"Isolated","manual",38.902,-97.655
385093,"CHASE CO. STATE FISHING LAKE",NA,"KS",10,NA,"http://www.kdheks.gov/befs/download/Annual_Lake_Reports/Lake_Report_2017.pdf",42.8375494115,"Isolated","manual",38.37,-96.582
374750,"GARNETT LAKE",NA,"KS",11,NA,"http://www.kdheks.gov/befs/download/Annual_Lake_Reports/Lake_Report_2017.pdf",15.4343313966,"Isolated","manual",38.305,-95.244
367094,"SABETHA CITY LAKE",NA,"KS",NA,0.8,"http://www.kdheks.gov/tmdl/mo/SabethaE.pdf",43.300145387,"Drainage","manual",39.907,-95.904
384243,"LAKE TANKO",NA,"KS",2.01168,0.79248,"http://www.kdheks.gov/tmdl/ve/Cherryvale.pdf",6.81438169985,"Isolated","manual",37.2591,-95.5523
369621,"ROOKS CO. STATE FISHING LAKE",NA,"KS",2.98704,1.31064,"http://www.kdheks.gov/tmdl/so/RooksE.pdf",11.6357468881,"Drainage","manual",39.402,-99.319
372473,"SABETHA WATERSHED POND",NA,"KS",4,NA,"http://www.kdheks.gov/tmdl/klr/sabetha.pdf",10.3554229098,"Drainage","manual",39.87933,-95.79756
376954,"STONE LAKE",NA,"KS",4,NA,"http://www.kdheks.gov/tmdl/ua/StoneE.pdf",15.6699087941,"Isolated","manual",38.3524,-98.7716
373011,"MYER'S POND",NA,"KS",1.5,NA,"http://www.kdheks.gov/tmdl/klr/myers.pdf",5.33995078097,"Isolated","manual",39.0103,-95.597
373121,"NEW OLATHE LAKE",NA,"KS",13.4112,5.54736,"http://www.kdheks.gov/tmdl/klr/new_lake_olathe.pdf",58.0163693608,"DrainageLk","manual",38.881,-94.875
373498,"LAKEVIEW ESTATES LAKE",NA,"KS",4,NA,"http://www.kdheks.gov/tmdl/klr/LakeviewE.pdf",6.90961425254,"Isolated","manual",38.944,-95.7681
382582,"ALTAMONT CITY NORTH LAKE",NA,"KS",3,1.3,"http://www.kdheks.gov/tmdl/ne/AltamontE.pdf",1.55854242266,"Isolated","manual",37.14316,-95.28938
370277,"CEDAR BLUFF LAKE",NA,"KS",18.98904,7.80288,"http://www.kdheks.gov/tmdl/ss/CedarBluffE.pdf",2403.33095249,"DrainageLk","manual",38.786,-99.727
384023,"MADISON CITY LAKE",NA,"KS",9.7536,NA,"http://fishing-app.gpsnauticalcharts.com/i-boating-fishing-web-app/fishing-marine-charts-navigation.html?title=Madison+City+Lake+boating+app#17.98/38.10580/-96.14853",40.5092453095,"Headwater","manual",38.107,-96.147
369329,"RIMROCK PARK LAKE",NA,"KS",3.3528,1.49352,"http://www.kdheks.gov/tmdl/ss/RimrockE.pdf",1.19578174862,"Isolated","manual",39.0214,-96.8501
69400,"MIAMI CO. STATE FISHING LAKE",NA,"KS",1.5,NA,"http://www.kdheks.gov/tmdl/mc/MiamiCo.pdf",45.0221846191,"Isolated","manual",38.42,-94.793
367585,"LOVEWELL LAKE",NA,"KS",9,3.6,"http://www.kdheks.gov/tmdl/2011/Lovewell_TMDL_Eu.pdf",1157.64601534,"Drainage","manual",39.891,-98.032
370553,"HERINGTON CITY LAKE",NA,"KS",7.0104,2.71272,"http://www.kdheks.gov/tmdl/ss/HerCityLakeE.pdf",69.0170443757,"Drainage","manual",38.668,-96.998
118019,"PARKER CITY LAKE",NA,"KS",6.096,NA,"http://fishing-app.gpsnauticalcharts.com/i-boating-fishing-web-app/fishing-marine-charts-navigation.html#18.01/38.31859/-94.99925",3.06343685674,"Isolated","manual",38.3188,-94.9995
384927,"ALTAMONT CITY WEST LAKE",NA,"KS",4,1.7,"http://www.kdheks.gov/tmdl/ne/AltamontE.pdf",4.50420125838,"Isolated","manual",37.14,-95.293
90343,"FORT SCOTT CITY LAKE",NA,"KS",12.192,NA,"http://fishing-app.gpsnauticalcharts.com/i-boating-fishing-web-app/fishing-marine-charts-navigation.html#17.01/37.78794/-94.75690",136.33587113,"Headwater","manual",37.788,-94.757
380821,"BARBER CO. STATE FISHING LAKE",NA,"KS",9,NA,"http://www.kdheks.gov/tmdl/la/BarberDO.pdf",11.9144203111,"DrainageLk","manual",37.296,-98.581
369122,"ATWOOD TOWNSHIP LAKE",NA,"KS",1.8288,NA,"http://fishing-app.gpsnauticalcharts.com/i-boating-fishing-web-app/fishing-marine-charts-navigation.html#19/39.81614/-101.03882",11.9801779604,"Drainage","manual",39.8161,-101.042
386157,"BARTLETT CITY LAKE",NA,"KS",2.01168,0.79248,"http://www.kdheks.gov/tmdl/ne/BartlettE.pdf",6.50599481525,"Isolated","manual",37.059,-95.216
372114,"LENEXA CITY LAKE",NA,"KS",12.192,NA,"http://www.kansasriverscience.org/where/johnson-county/lake-lenexa",11.183499446,"Isolated","manual",38.966,-94.837
138382,"CEDAR CREEK RESERVOIR",NA,"KS",15.24,6.096,"http://www.kdheks.gov/tmdl/download/eval_assessment/CedarCreekLake_2008LakeProtectionPlan.pdf",88.246400932,"Drainage","manual",37.82,-94.793
378468,"HAIN STATE FISHING LAKE",NA,"KS",1.524,NA,"https://ksoutdoors.com/Fishing/Where-to-Fish-in-Kansas/Fishing-Locations-Public-Waters/Southwest-Region/Hain-State-Fishing-Lake",1.36038066714,"Isolated","manual",37.854,-99.858
372872,"OGDEN CITY LAKE",NA,"KS",2,NA,"http://www.kdheks.gov/tmdl/klr/ogden.pdf",5.73859893198,"Isolated","manual",39.101,-96.708
374022,"NEBO WATERSHED LAKE",NA,"KS",2.5,NA,"http://www.kdheks.gov/befs/download/Annual_Lake_Reports/Lake_Report_2017.pdf",12.2879673952,"Drainage","manual",39.447,-95.597
374134,"STROWBRIDGE RESERVOIR",NA,"KS",8.5,NA,"http://www.kdheks.gov/befs/download/Annual_Lake_Reports/Lake_Report_2001.pdf",98.4299568512,"Headwater","manual",38.817,-95.641
378184,"EL DORADO LAKE",NA,"KS",15.51432,6.4008,"http://www.kdheks.gov/tmdl/wa/ElDoradoE.pdf",2997.69323724,"DrainageLk","manual",37.846,-96.813
53987,"EDGERTON CITY LAKE",NA,"KS",4,NA,"http://www.kdheks.gov/tmdl/mc/EdgerE.pdf",2.86847071569,"Headwater","manual",38.7637,-95.004
42541,"HIAWATHA CITY LAKE",NA,"KS",5.5,2.2,"http://www.kdheks.gov/tmdl/mo/HiawathaAtr.pdf",2.91656672207,"Isolated","manual",39.826,-95.528
385293,"GRIDLEY CITY LAKE",NA,"KS",2.98704,1.31064,"http://www.kdheks.gov/tmdl/ne/GridleyE.pdf",13.7950772697,"Headwater","manual",38.113,-95.877
115970,"LOUISBURG OLD LAKE",NA,"KS",6.096,NA,"http://fishing-app.gpsnauticalcharts.com/i-boating-fishing-web-app/fishing-marine-charts-navigation.html#19.01/38.60762/-94.67300",8.68842014515,"Isolated","manual",38.6081,-94.6731
382222,"MOLINE CITY SF LAKE",NA,"KS",7.62,NA,"https://ksoutdoors.com/Fishing/Where-to-Fish-in-Kansas/Fishing-Locations-Public-Waters/Southeast-Region/Moline-City-Lake-South-old",5.20009311729,"Isolated","manual",37.3655,-96.3301
376772,"LAKE AFTON",NA,"KS",6,NA,"http://www.kdheks.gov/tmdl/la/AftonE.pdf",66.4542352989,"Isolated","manual",37.605,-97.629
72453,"ROCK CREEK LAKE",NA,"KS",5,2,"http://www.kdheks.gov/tmdl/mc/RockCreek_EU_TMDL_050307eb.pdf",30.0629783438,"DrainageLk","manual",37.816,-94.754
372039,"MISSION LAKE",NA,"KS",4.2,1.9,"http://www.kdheks.gov/tmdl/2011/Mission_Lake_TMDL.pdf",50.9066644306,"Headwater","manual",39.673,-95.517
370082,"JEWELL CO. STATE FISHING LAKE",NA,"KS",6.7,NA,"http://www.kdheks.gov/befs/download/Annual_Lake_Reports/Lake_Report_2016.pdf",16.0203831702,"Isolated","manual",39.698,-98.281
378067,"CADILLAC LAKE",NA,"KS",0.5,NA,"http://www.kdheks.gov/tmdl/la/CadillacE.pdf",2.60461070665,"Isolated","manual",37.735,-97.459
383874,"COUNCIL GROVE CITY LAKE",NA,"KS",10.9728,4.2672,"http://www.kdheks.gov/tmdl/ne/CouncilGroveTMDL.pdf",155.627486174,"Headwater","manual",38.677,-96.555
378264,"STERLING CITY LAKE",NA,"KS",6.096,NA,"http://fishing-app.gpsnauticalcharts.com/i-boating-fishing-web-app/fishing-marine-charts-navigation.html#17.02/38.20349/-98.20307",3.39311627888,"Isolated","manual",38.2035,-98.2024
382431,"MONTGOMERY CO. STATE FISHING LAKE",NA,"KS",6.4008,2.49936,"http://www.kdheks.gov/tmdl/ve/MGCoSFL.pdf",31.6640242504,"Isolated","manual",37.162,-95.687
383173,"NEOSHO CO. STATE FISHING LAKE",NA,"KS",7.9248,2.8956,"http://www.kdheks.gov/tmdl/ne/NeoshoCoSFL.pdf",29.4407298837,"Headwater","manual",37.421,-95.198
369694,"OTTAWA CO. STATE FISHING LAKE",NA,"KS",3.3528,1.49352,"http://www.kdheks.gov/tmdl/so/OttawaSFL_E.pdf",38.6713843473,"Drainage","manual",39.106,-97.572
368583,"JAMESTOWN WILDLIFE AREA",NA,"KS",0.8,NA,"http://www.kdheks.gov/befs/download/Annual_Lake_Reports/Lake_Report_2016.pdf",273.883218594,"Isolated","manual",39.641,-97.897
374361,"LAKE IDLEWILD",NA,"KS",1,NA,"http://www.kdheks.gov/tmdl/klr/jamestownFCB.pdf",2.51043875394,"Isolated","manual",39.709,-96.745
383428,"SEVERY CITY LAKE",NA,"KS",4.2672,NA,"http://fishing-app.gpsnauticalcharts.com/i-boating-fishing-web-app/fishing-marine-charts-navigation.html#18.02/37.62046/-96.17297",4.43783399928,"Isolated","manual",37.6214,-96.1733
376886,"BUTLER CO. STATE FISHING LAKE",NA,"KS",2.98704,1.31064,"http://www.kdheks.gov/tmdl/wa/ButlerCoSFL.pdf",41.0559566352,"Drainage","manual",37.548,-96.694
46637,"PLEASANTON RESERVOIR",NA,"KS",8.6,3.1,"http://www.kdheks.gov/tmdl/2013/Pleasanton_Res_TMDL_Eu.pdf",39.5340880376,"Isolated","manual",38.196,-94.689
386379,"OLPE CITY LAKE",NA,"KS",4.8768,2.01168,"http://www.kdheks.gov/tmdl/ne/OlpeE.pdf",30.7917934197,"Headwater","manual",38.251,-96.184
371927,"NEW ALMA CITY LAKE",NA,"KS",13,NA,"http://www.kdheks.gov/befs/download/Annual_Lake_Reports/Lake_Report_2016.pdf",20.459380437,"Headwater","manual",38.976,-96.298
383274,"PARSONS LAKE",NA,"KS",5.4864,2.10312,"http://www.kdheks.gov/tmdl/ne/ParsonsSILT.pdf",332.108170591,"Headwater","manual",37.402,-95.334
382439,"WILSON CO. STATE FISHING LAKE",NA,"KS",11,NA,"http://www.kdheks.gov/befs/download/Annual_Lake_Reports/Lake_Report_2000.pdf",44.9486817509,"Isolated","manual",37.693,-95.677
373128,"PIERSON PARK LAKE",NA,"KS",4,NA,"http://www.kdheks.gov/tmdl/klr/pierson.pdf",4.67657927094,"Isolated","manual",39.068,-94.712
374663,"CRYSTAL LAKE",NA,"KS",4,NA,"http://www.kdheks.gov/tmdl/mc/CrystalE.pdf",5.79470743961,"Isolated","manual",38.268,-95.245
369783,"FOSSIL LAKE",NA,"KS",2.98704,1.31064,"http://www.kdheks.gov/tmdl/ss/FossilE.pdf",17.2610843492,"Headwater","manual",38.861,-98.848
370558,"GEARY CO. STATE FISHING LAKE",NA,"KS",12.00912,3.9624,"http://www.kdheks.gov/tmdl/ss/GearyE.pdf",18.822267594,"Drainage","manual",38.904,-96.865
383968,"MOLINE RESERVOIR",NA,"KS",5,NA,"http://www.kdheks.gov/befs/download/Annual_Lake_Reports/Lake_Report_2017.pdf",72.1402408624,"Isolated","manual",37.388,-96.313
377804,"MINGENBACK LAKE",NA,"KS",1,NA,"http://www.kdheks.gov/tmdl/la/Mingenback.pdf",5.09914997581,"Drainage","manual",38.373,-97.651
382496,"THAYER NEW CITY LAKE",NA,"KS",9,NA,"http://www.kdheks.gov/befs/download/Annual_Lake_Reports/Lake_Report_2002.pdf",16.5711850719,"Isolated","manual",37.483,-95.502
91315,"BROWN CO. STATE FISHING LAKE",NA,"KS",4.5,NA,"http://www.kdheks.gov/tmdl/mo/BrownCoSFL.pdf",26.618347568,"Headwater","manual",39.845,-95.376
101511,"LAKE WARNOCK",NA,"KS",2,NA,"http://www.kdheks.gov/befs/download/Annual_Lake_Reports/Lake_Report_2017.pdf",13.4964656229,"Drainage","manual",39.539,-95.149
97451,"BIG ELEVEN LAKE",NA,"KS",NA,1.3,"http://www.kdheks.gov/tmdl/mo/BigElevenE.pdf",1.27718489907,"Isolated","manual",39.1176,-94.6373
376701,"HORSETHIEF CANYON LAKE",NA,"KS",12.9,NA,"http://www.kdheks.gov/befs/download/Annual_Lake_Reports/Lake_Report_2016.pdf",92.7917714048,"Drainage","manual",38.062,-100.052
374133,"BANNER CREEK LAKE",NA,"KS",10,NA,"http://www.kdheks.gov/befs/download/Annual_Lake_Reports/Lake_Report_2017.pdf",197.418943489,"Drainage","manual",39.456,-95.766
377732,"KIOWA CO. STATE FISHING LAKE",NA,"KS",2.1,NA,"http://www.kdheks.gov/befs/download/Annual_Lake_Reports/Lake_Report_2016.pdf",8.18116733012,"Isolated","manual",37.612,-99.301
378857,"RUSSELL LAKE",NA,"KS",2,NA,"http://www.kdheks.gov/tmdl/ci/russell.pdf",2.58791556658,"Isolated","manual",37.17783,-101.33081
372301,"WASHINGTON CO. SFL WETLAND",NA,"KS",4.8768,NA,"http://fishing-app.gpsnauticalcharts.com/i-boating-fishing-web-app/fishing-marine-charts-navigation.html#19.01/39.92306/-97.11789",3.62922169707,"Isolated","manual",39.932,-97.121
377003,"CAREY PARK LAKE",NA,"KS",4,NA,"http://www.kdheks.gov/tmdl/la/CareyPark.pdf",31.73126145,"Isolated","manual",38.048,-97.84
374471,"PRAIRIE LAKE",NA,"KS",7.3,NA,"http://www.kdheks.gov/befs/download/Annual_Lake_Reports/Lake_Report_2016.pdf",24.6677758494,"Headwater","manual",39.487,-95.688
378131,"WINFIELD PARK LAGOON",NA,"KS",2.01168,0.79248,"http://www.kdheks.gov/tmdl/wa/WinfieldE.pdf",3.45446985349,"Isolated","manual",37.2495,-96.999
384575,"SEDAN CITY NORTH LAKE",NA,"KS",7,NA,"http://www.kdheks.gov/befs/download/Annual_Lake_Reports/Lake_Report_2002.pdf",12.509028404,"Isolated","manual",37.17,-96.218
20441,"BRONSON CITY LAKE",NA,"KS",6,NA,"http://www.kdheks.gov/tmdl/mc/Bronson.pdf",5.39806427505,"Isolated","manual",37.887,-95.033
374787,"OSAGE CITY RESERVOIR",NA,"KS",3.048,1.3,"http://www.kdheks.gov/tmdl/mc/OsageE.pdf
http://fishing-app.gpsnauticalcharts.com/i-boating-fishing-web-app/fishing-marine-charts-navigation.html#18.01/38.61708/-95.83150",20.2398162865,"Isolated","manual",38.6178,-95.8329
373026,"LAKE JIVARO",NA,"KS",10.668,NA,"https://en.wikipedia.org/wiki/Lake_Jivaro",29.9568263569,"Headwater","manual",39.007,-95.552
382629,"NEOSHO WILDLIFE AREA",NA,"KS",1.00584,0.09144,"http://www.kdheks.gov/tmdl/ne/NeoshoWMAPb.pdf",236.824139402,"Isolated","manual",37.488,-95.125
383619,"LE CLERE LAKE",NA,"KS",4.4196,NA,"http://fishing-app.gpsnauticalcharts.com/i-boating-fishing-web-app/fishing-marine-charts-navigation.html#20/37.05205/-95.64015",2.48848375451,"Isolated","manual",37.0529,-95.6409
386315,"MOLINE CITY LAKE #2",NA,"KS",7,NA,"http://www.kdheks.gov/befs/download/Annual_Lake_Reports/Lake_Report_2002.pdf",10.2213484387,"Isolated","manual",37.351,-96.342
384018,"PETER PAN POND",NA,"KS",1.9812,NA,"https://ksoutdoors.com/Fishing/Where-to-Fish-in-Kansas/Fishing-Locations-Public-Waters/Southeast-Region/Emporia-Peter-Pan-Park",1.12815027357,"Isolated","manual",38.3945,-96.188
372529,"LITTLE LAKE",NA,"KS",2,NA,"http://www.kdheks.gov/tmdl/klr/little.pdf",3.67669570481,"Isolated","manual",39.669,-95.519
370155,"LOGAN CO. STATE FISHING LAKE",NA,"KS",6.4008,NA,"https://ksoutdoors.com/Fishing/Where-to-Fish-in-Kansas/Fishing-Locations-Public-Waters/Northwest-Region/Logan-State-Fishing-Lake",18.1321406663,"Isolated","manual",38.9353,-101.239
377672,"QUIVERA LITTLE SALT MARSH",NA,"KS",1,NA,"http://www.kdheks.gov/befs/download/Annual_Lake_Reports/Lake_Report_2003.pdf",293.056054617,"Isolated","manual",38.103,-98.486
370590,"SHERIDAN CO. STATE FISHING LAKE",NA,"KS",4.8768,2.01168,"http://www.kdheks.gov/tmdl/so/SheridanSFL_E.pdf",14.0013825317,"Headwater","manual",39.359,-100.228
370444,"LOGAN CITY LAKE",NA,"KS",3.9624,1.70688,"http://www.kdheks.gov/tmdl/so/LoganE.pdf",9.47395857005,"Isolated","manual",39.629,-99.581
377856,"HARVEY CO. EAST LAKE",NA,"KS",4.8768,2.01168,"http://www.kdheks.gov/tmdl/wa/HarveyEastE.pdf",62.1101854729,"DrainageLk","manual",38.047,-97.199
385349,"YATES CENTER RESERVOIR",NA,"KS",5.4864,NA,"http://fishing-app.gpsnauticalcharts.com/i-boating-fishing-web-app/fishing-marine-charts-navigation.html#18.01/37.86528/-95.74525",46.1321327266,"Headwater","manual",37.8664,-95.75
377717,"FORD COUNTY LAKE",NA,"KS",4.3,NA,"http://www.kdheks.gov/befs/download/Annual_Lake_Reports/Lake_Report_2016.pdf",3.43035253003,"Isolated","manual",37.825,-99.9181
376707,"GOODMAN STATE FISHING LAKE",NA,"KS",3.5,NA,"http://www.kdheks.gov/befs/download/Annual_Lake_Reports/Lake_Report_1999.pdf",7.61879148011,"Isolated","manual",38.386,-99.852
371055,"GAGE PARK LAKE",NA,"KS",3,NA,"http://www.kdheks.gov/tmdl/klr/gage.pdf",1.16165398039,"Isolated","manual",39.058,-95.73
383854,"MINED LAND LAKE 12",NA,"KS",6.00456,3.26136,"http://www.kdheks.gov/tmdl/ne/MinedLandSO4.pdf",2.88238553383,"Isolated","manual",37.259,-94.816
383239,"MINED LAND LAKE NO. 42 WETLAND",NA,"KS",0.09144,0.03048,"http://www.kdheks.gov/tmdl/ne/MinedLandSO4.pdf",7.1169643393,"Isolated","manual",37.253,-94.94
376728,"QUIVERA BIG SALT MARSH",NA,"KS",1,NA,"http://www.kdheks.gov/tmdl/la/QuiviraBigE.pdf",3.7409659216,"Isolated","manual",38.183,-98.53
382650,"MINED LAND LAKE 27",NA,"KS",10.48512,5.60832,"http://www.kdheks.gov/tmdl/ne/MinedLandSO4.pdf",13.3525500725,"Isolated","manual",37.202,-95.048
378457,"CONCANNON STATE FISHING LAKE",NA,"KS",3,1.3,"http://www.kdheks.gov/tmdl/2012/Concannon_SFL_TMDL_Eu.pdf",20.6697149498,"Drainage","manual",38.07,-100.563
382664,"MINED LAND LAKE 22",NA,"KS",7.0104,3.81,"http://www.kdheks.gov/tmdl/ne/MinedLandSO4.pdf",9.2442024788,"Isolated","manual",37.225,-94.992
375063,"RICHMOND CITY LAKE",NA,"KS",8,NA,"http://www.kdheks.gov/befs/download/Annual_Lake_Reports/Lake_Report_2017.pdf",5.21476120158,"Isolated","manual",38.393,-95.223
272035,"LAKE BESHEAR - DAM",NA,"KY",10.668,3.048,"https://en.wikipedia.org/wiki/Lake_Beshear",317.335915713,"DrainageLk","manual",37.148105,-87.682019
134751,"CARPENTER LAKE NEAR MACEO",NA,"KY",3.6576,NA,"https://app.fw.ky.gov/fisheries/waterbodydetail.aspx?wid=39",27.6660178995,"Isolated","manual",37.8456,-86.9814
271180,"WILLISBURG LAKE NEAR WILLISBURG",NA,"KY",18.288,NA,"http://www.willisburglake.com/",46.4997175142,"Drainage","manual",37.827557,-85.162596
260737,"ELMER DAVIS LAKE NEAR OWENTON",NA,"KY",16.764,NA,"https://app.fw.ky.gov/fisheries/waterbodydetail.aspx?wid=53",53.2506615706,"Drainage","manual",38.49539,-84.882014
260786,"CORINTH LAKE NEAR CORINTH",NA,"KY",12.192,NA,"https://app.fw.ky.gov/fisheries/waterbodydetail.aspx?wid=52",31.4950407667,"Headwater","manual",38.5044,-84.5878
260190,"WILLIAMSTOWN LAKE - DAM",NA,"KY",21.336,6.4008,"https://en.wikipedia.org/wiki/Williamstown_Lake",121.048401005,"Drainage","manual",38.6772,-84.5208
261000,"A.J. JOLLY LAKE - DAM",NA,"KY",12.192,NA,"https://app.fw.ky.gov/fisheries/waterbodydetail.aspx?wid=221",70.8049486539,"Drainage","manual",38.8772,-84.3856
260595,"WILGREEN LAKE NEAR RICHMOND",NA,"KY",14.6,6.4,"Von Gruenigen, C. and Borowski, W.S., 2010. Heavy metal concentrations in water and surface sediments of Wilgreen Lake, Madison County, Kentucky.",57.3643106702,"Drainage","manual",37.7028,-84.3564
268933,"LAKE LINVILLE NEAR RENFRO VALLEY",NA,"KY",10.9728,4.8768,"https://en.wikipedia.org/wiki/Lake_Linville",144.115100671,"Drainage","manual",37.3861,-84.3403
270229,"WOOD CREEK LAKE - DAM",NA,"KY",38.7096,10.668,"https://laurelkytourism.com/application/files/1914/3403/0629/woodcreeklake.pdf",252.980876646,"Drainage","manual",37.2128,-84.1983
261675,"WASHBURN LAKE NEAR DUKEHURST",NA,"KY",5.4864,NA,"https://app.fw.ky.gov/fisheries/waterbodydetail.aspx?wid=44",7.3425212872,"Headwater","manual",37.5181,-86.8489
61697,"LAKE JERICHO NEAR JERICHO",NA,"KY",12.192,NA,"https://www.henrycountyky.com/community/LkJericho.htm",50.3982985504,"Drainage","manual",38.4453,-85.2814
262959,"METCALFE COUNTY LAKE NEAR EDMONTON",NA,"KY",4.8768,NA,"https://app.fw.ky.gov/fisheries/waterbodydetail.aspx?wid=277",8.40879326173,"Drainage","manual",37.043588,-85.609961
261131,"HERRINGTON LAKE - DAM",NA,"KY",75.8952,NA,"https://en.wikipedia.org/wiki/Herrington_Lake",1072.89718228,"DrainageLk","manual",37.7781,-84.7114
260192,"BUCKHORN LAKE - DAM",NA,"KY",15.24,NA,"http://www.lakebrowser.com/kentucky/buckhorn_lake.asp",545.94089648,"DrainageLk","manual",37.3383,-83.4711
259636,"DEWEY LAKE - DAM",NA,"KY",12.192,NA,"http://www.lakebrowser.com/kentucky/dewey_lake.asp",330.455474327,"DrainageLk","manual",37.7358,-82.7272
259604,"FISHTRAP LAKE - DAM",NA,"KY",25.6032,NA,"http://www.lakebrowser.com/kentucky/fishtrap_lake.asp",420.046107014,"Drainage","manual",37.432791,-82.416427
